country,name,speciality,healthcare,amenity,address,phone,email,website,opening_hours,lat,lon,osm_type,osm_id,osm_url,operator,brand,osm_key,tags_json
IT,Centro Traumatologico,,clinic,clinic,"Champoluc, Ayas",,,,,45.839788,7.7314012,node,372794143,https://www.openstreetmap.org/node/372794143,,,node/372794143,"{""addr:city"": ""Ayas"", ""addr:street"": ""Champoluc"", ""amenity"": ""clinic"", ""healthcare"": ""clinic"", ""name"": ""Centro Traumatologico"", ""source"": ""survey""}"
IT,Dott. Giuseppe Giordano - Dietologo,dietist,doctor,doctors,,,,,"Mo,We,Fr 15:30-17:00",37.6491466,12.5981631,node,379687591,https://www.openstreetmap.org/node/379687591,,,node/379687591,"{""amenity"": ""doctors"", ""contact:mobile"": ""+39 347 263 0104"", ""healthcare"": ""doctor"", ""healthcare:speciality"": ""dietist"", ""name"": ""Dott. Giuseppe Giordano - Dietologo"", ""opening_hours"": ""Mo,We,Fr 15:30-17:00""}"
IT,Dr. Angelo Palmieri - Pneumologo,,doctor,doctors,,,,,,41.5066807,15.330794,node,440966701,https://www.openstreetmap.org/node/440966701,,,node/440966701,"{""amenity"": ""doctors"", ""dispensing"": ""no"", ""healthcare"": ""doctor"", ""name"": ""Dr. Angelo Palmieri - Pneumologo""}"
IT,Istituto Dermatologico San Gallicano,dermatology,hospital,hospital,"Via Fermo Ognibene 23, 00144",,,,Mo-Fr; Sa 08:00-01:00,41.8023637,12.4486445,node,804465318,https://www.openstreetmap.org/node/804465318,IRCCS Istituti Fisioterapici Ospitalieri,,node/804465318,"{""addr:housenumber"": ""23"", ""addr:postcode"": ""00144"", ""addr:street"": ""Via Fermo Ognibene"", ""amenity"": ""hospital"", ""healthcare"": ""hospital"", ""healthcare:speciality"": ""dermatology"", ""name"": ""Istituto Dermatologico San Gallicano"", ""opening_hours"": ""Mo-Fr; Sa 08:00-01:00"", ""operator"": ""IRCCS Istituti Fisioterapici Ospitalieri"", ""operator:type"": ""public"", ""short_name"": ""ISG""}"
IT,Centro Traumatologico Dr.Lapira,,doctor,doctors,"Strada Dolomites 39, Pozza di Fassa, 38036",,,,,46.4257494,11.6824873,node,946592174,https://www.openstreetmap.org/node/946592174,,,node/946592174,"{""addr:city"": ""Pozza di Fassa"", ""addr:country"": ""IT"", ""addr:housenumber"": ""39"", ""addr:postcode"": ""38036"", ""addr:street"": ""Strada Dolomites"", ""amenity"": ""doctors"", ""healthcare"": ""doctor"", ""name"": ""Centro Traumatologico Dr.Lapira"", ""public_healthcare"": ""no""}"
IT,Sant'Ambrogio,,doctor,doctors,,,,,,45.5424785,9.1702831,node,1122180917,https://www.openstreetmap.org/node/1122180917,Dott.ssa Albano,,node/1122180917,"{""amenity"": ""doctors"", ""description"": ""Centro prelievi, laboratorio analisi mediche"", ""healthcare"": ""doctor"", ""name"": ""Sant'Ambrogio"", ""operator"": ""Dott.ssa Albano"", ""source"": ""survey""}"
IT,Progetto Salute,,doctor,doctors,"Via Milano 118, Trento, 38122",,,http://www.prosalute.net/,Mo-Fr 07:30-17:00,46.0623434,11.1303074,node,1264896492,https://www.openstreetmap.org/node/1264896492,,,node/1264896492,"{""addr:city"": ""Trento"", ""addr:country"": ""IT"", ""addr:housenumber"": ""118"", ""addr:postcode"": ""38122"", ""addr:street"": ""Via Milano"", ""amenity"": ""doctors"", ""contact:website"": ""http://www.prosalute.net/"", ""healthcare"": ""doctor"", ""name"": ""Progetto Salute"", ""opening_hours"": ""Mo-Fr 07:30-17:00""}"
IT,Dr.Bonamicio Lisabetta,gynaecology;general,clinic,clinic,Via Papa Giovanni 23,,,,,43.8703656,10.3409934,node,1984744878,https://www.openstreetmap.org/node/1984744878,,,node/1984744878,"{""addr:street"": ""Via Papa Giovanni 23"", ""amenity"": ""clinic"", ""healthcare"": ""clinic"", ""healthcare:speciality"": ""gynaecology;general"", ""name"": ""Dr.Bonamicio Lisabetta""}"
IT,Consultorio per l'Adolescenza,gynaecology;psychology;pregnancy;general,,doctors,"Via Vincenzo Bellini 11, 20064",+39 02 9570 7633,,,Mo-Th 09:00-17:00; Fr 09:00-16:00,45.53482,9.4123966,node,2173986998,https://www.openstreetmap.org/node/2173986998,ASST Melegnano,,node/2173986998,"{""addr:country"": ""IT"", ""addr:housenumber"": ""11"", ""addr:postcode"": ""20064"", ""addr:street"": ""Via Vincenzo Bellini"", ""amenity"": ""doctors"", ""healthcare:speciality"": ""gynaecology;psychology;pregnancy;general"", ""loc_name"": ""Consultorio per l'Adolescenza Bussero"", ""name"": ""Consultorio per l'Adolescenza"", ""official_name"": ""Consultorio Adolescenti"", ""opening_hours"": ""Mo-Th 09:00-17:00; Fr 09:00-16:00"", ""opening_hours:url"": ""http://www.asst-melegnano-martesana.it/servizi/servizi-al-cittadino/servizi-territoriali/consultori-familiari-consultori-adolescenti/"", ""operator"": ""ASST Melegnano"", ""phone"": ""+39 02 9570 7633"", ""wheelchair"": ""yes""}"
IT,Ospedale civile di voghera entrata posteriore,,hospital,hospital,,,,,,44.994752,9.0145345,node,2200633476,https://www.openstreetmap.org/node/2200633476,,,node/2200633476,"{""amenity"": ""hospital"", ""healthcare"": ""hospital"", ""name"": ""Ospedale civile di voghera entrata posteriore"", ""toilets:wheelchair"": ""yes"", ""wheelchair"": ""yes""}"
IT,Centro Medicina Biologica - CEMBIO,,clinic,clinic,"Via Giuseppe Ferrari 6, Monza, 20900",,,https://www.centrodimedicinabiologica.it/,,45.5819493,9.2896041,node,2435781375,https://www.openstreetmap.org/node/2435781375,,,node/2435781375,"{""addr:city"": ""Monza"", ""addr:housenumber"": ""6"", ""addr:postcode"": ""20900"", ""addr:street"": ""Via Giuseppe Ferrari"", ""amenity"": ""clinic"", ""health_specialty:alternative_medicine"": ""yes"", ""healthcare"": ""clinic"", ""name"": ""Centro Medicina Biologica - CEMBIO"", ""source"": ""survey"", ""website"": ""https://www.centrodimedicinabiologica.it/""}"
IT,Dott. Raffaele Sciliano Urologo,urology,doctor,doctors,,+39 348 2204683,,,,45.2523364,10.2965963,node,2437296479,https://www.openstreetmap.org/node/2437296479,,,node/2437296479,"{""amenity"": ""doctors"", ""contact:phone"": ""+39 348 2204683"", ""healthcare"": ""doctor"", ""healthcare:speciality"": ""urology"", ""name"": ""Dott. Raffaele Sciliano Urologo""}"
IT,Centro Medico di Patologia Clinica Redi,,clinic,clinic,,+39 0773 691605,,https://www.redilab.it/,,41.4708112,12.9044589,node,2476646656,https://www.openstreetmap.org/node/2476646656,,,node/2476646656,"{""amenity"": ""clinic"", ""healthcare"": ""clinic"", ""name"": ""Centro Medico di Patologia Clinica Redi"", ""phone"": ""+39 0773 691605"", ""website"": ""https://www.redilab.it/""}"
IT,"dott. Marco Penzo, Psicologo",psychiatry,doctor,doctors,"Via Everest 1, Treviso, 31100",,,,,45.6843341,12.219603,node,2515152260,https://www.openstreetmap.org/node/2515152260,,,node/2515152260,"{""addr:city"": ""Treviso"", ""addr:country"": ""IT"", ""addr:housenumber"": ""1"", ""addr:postcode"": ""31100"", ""addr:street"": ""Via Everest"", ""amenity"": ""doctors"", ""emergency"": ""no"", ""healthcare"": ""doctor"", ""healthcare:speciality"": ""psychiatry"", ""name"": ""dott. Marco Penzo, Psicologo""}"
IT,Studio radiologico Scala,,doctor,doctors,,,,,,39.0764216,17.1277887,node,2582456415,https://www.openstreetmap.org/node/2582456415,,,node/2582456415,"{""amenity"": ""doctors"", ""healthcare"": ""doctor"", ""name"": ""Studio radiologico Scala""}"
IT,Centro Radiologico Familiari,radiology,doctor,doctors,,,,,,39.0808306,17.1256328,node,2587549035,https://www.openstreetmap.org/node/2587549035,,,node/2587549035,"{""amenity"": ""doctors"", ""healthcare"": ""doctor"", ""healthcare:speciality"": ""radiology"", ""name"": ""Centro Radiologico Familiari""}"
IT,Poliambulatorio - Via Sassi,cardiology;dermatology;gynaecology;neurology;ophthalmology;orthodontics;dental_oral_maxillo_facial_surgery;otolaryngology,hospital,hospital,"Via Giuseppe Antonio Sassi 4, Milano, 20123",,,https://www.asst-fbf-sacco.it/servizi-territoriali/poliambulatori-32,,45.4668625,9.1720033,node,2678697562,https://www.openstreetmap.org/node/2678697562,ASST Fatebenefratelli Sacco,,node/2678697562,"{""addr:city"": ""Milano"", ""addr:housenumber"": ""4"", ""addr:postcode"": ""20123"", ""addr:street"": ""Via Giuseppe Antonio Sassi"", ""amenity"": ""hospital"", ""emergency"": ""no"", ""healthcare"": ""hospital"", ""healthcare:speciality"": ""cardiology;dermatology;gynaecology;neurology;ophthalmology;orthodontics;dental_oral_maxillo_facial_surgery;otolaryngology"", ""name"": ""Poliambulatorio - Via Sassi"", ""operator"": ""ASST Fatebenefratelli Sacco"", ""operator:type"": ""public"", ""website"": ""https://www.asst-fbf-sacco.it/servizi-territoriali/poliambulatori-32""}"
IT,Studio Psicologico dottoressa Albiero Elisabetta,,doctor,doctors,"Corso Padova 104, Vicenza, 36100",+39 349 0935630,info@psicologo-vicenza.com,https://www.psicologo-vicenza.com/,,45.5479326,11.5580308,node,2690987949,https://www.openstreetmap.org/node/2690987949,Dottoressa Albiero Elisabetta,,node/2690987949,"{""addr:city"": ""Vicenza"", ""addr:country"": ""IT"", ""addr:housenumber"": ""104"", ""addr:postcode"": ""36100"", ""addr:street"": ""Corso Padova"", ""amenity"": ""doctors"", ""email"": ""info@psicologo-vicenza.com"", ""healthcare"": ""doctor"", ""name"": ""Studio Psicologico dottoressa Albiero Elisabetta"", ""operator"": ""Dottoressa Albiero Elisabetta"", ""phone"": ""+39 349 0935630"", ""website"": ""https://www.psicologo-vicenza.com/""}"
IT,Croce Rossa Italiana - Cogoleto,,hospital,,"Piazza Fosco Maggetti 8, Cogoleto, 16016",,,,,44.3899979,8.6455346,node,2766446026,https://www.openstreetmap.org/node/2766446026,Croce Rossa Italiana,Croce Rossa Italiana,node/2766446026,"{""addr:city"": ""Cogoleto"", ""addr:housenumber"": ""8"", ""addr:postcode"": ""16016"", ""addr:street"": ""Piazza Fosco Maggetti"", ""brand"": ""Croce Rossa Italiana"", ""brand:wikidata"": ""Q913903"", ""emergency"": ""ambulance_station"", ""healthcare"": ""hospital"", ""name"": ""Croce Rossa Italiana - Cogoleto"", ""operator"": ""Croce Rossa Italiana""}"
IT,"Studio radiologico ""Città di Parabiago""",,clinic,clinic,"Corso Sempione 80a, Parabiago, 20015",+39 0331 552401,info@studioradiologico.org,http://www.studioradiologico.org,Mo-Fr 09:00-18:00,45.5756449,8.9544594,node,2968673743,https://www.openstreetmap.org/node/2968673743,C.A.S.F.E.L. srl,,node/2968673743,"{""addr:city"": ""Parabiago"", ""addr:housenumber"": ""80a"", ""addr:postcode"": ""20015"", ""addr:street"": ""Corso Sempione"", ""amenity"": ""clinic"", ""contact:email"": ""info@studioradiologico.org"", ""contact:facebook"": ""1113452918698053"", ""contact:phone"": ""+39 0331 552401"", ""contact:website"": ""http://www.studioradiologico.org"", ""healthcare"": ""clinic"", ""name"": ""Studio radiologico \""Città di Parabiago\"""", ""opening_hours"": ""Mo-Fr 09:00-18:00"", ""operator"": ""C.A.S.F.E.L. srl"", ""operator:type"": ""private"", ""ref:vatin"": ""IT10975500157""}"
IT,Radiologia Cavalcanti,,clinic,clinic,"Via Taranto 58, Roma, 00182",+39 06 77204735,radiologia.cavalcanti@yahoo.it,https://www.radiologiacavalcanti.com/,,41.8844353,12.514682,node,3047139662,https://www.openstreetmap.org/node/3047139662,,,node/3047139662,"{""addr:city"": ""Roma"", ""addr:country"": ""IT"", ""addr:housenumber"": ""58"", ""addr:postcode"": ""00182"", ""addr:street"": ""Via Taranto"", ""amenity"": ""clinic"", ""email"": ""radiologia.cavalcanti@yahoo.it"", ""fax"": ""+39 06 77204735"", ""healthcare"": ""clinic"", ""name"": ""Radiologia Cavalcanti"", ""phone"": ""+39 06 77204735"", ""website"": ""https://www.radiologiacavalcanti.com/""}"
IT,A.O.U. CITTÀ DELLA SALUTE E DELLA SCIENZA DI TORINO – OSPEDALE OSTETRICO GINECOLOGICO SANT’ANNA,gynaecology;oncology;senologia;contro_violenza_di_genere,hospital,hospital,"Corso Spezia 60, Torino",,,,,45.0361441,7.6740203,node,3070468685,https://www.openstreetmap.org/node/3070468685,,,node/3070468685,"{""addr:city"": ""Torino"", ""addr:housenumber"": ""60"", ""addr:street"": ""Corso Spezia"", ""amenity"": ""hospital"", ""healthcare"": ""hospital"", ""healthcare:speciality"": ""gynaecology;oncology;senologia;contro_violenza_di_genere"", ""name"": ""A.O.U. CITTÀ DELLA SALUTE E DELLA SCIENZA DI TORINO – OSPEDALE OSTETRICO GINECOLOGICO SANT’ANNA""}"
IT,Punto erogazione servizi Monterubiaglio,,clinic,clinic,,,,,,42.7701769,12.0183022,node,3149436864,https://www.openstreetmap.org/node/3149436864,Azienda Unità Sanitaria Locale Umbria n. 2,,node/3149436864,"{""amenity"": ""clinic"", ""healthcare"": ""clinic"", ""name"": ""Punto erogazione servizi Monterubiaglio"", ""operator"": ""Azienda Unità Sanitaria Locale Umbria n. 2"", ""operator:type"": ""public"", ""short_name"": ""P.E.S. Monterubiaglio""}"
IT,"Studio radiologico ""Bioradiologia""",,doctor,doctors,,,,,,39.9016298,8.5897178,node,3247312575,https://www.openstreetmap.org/node/3247312575,,,node/3247312575,"{""amenity"": ""doctors"", ""healthcare"": ""doctor"", ""name"": ""Studio radiologico \""Bioradiologia\""""}"
IT,Poliambulatorio di via Masaniello,gynaecology;ophthalmology;dentist;orthopaedics;dermatology;otolaryngology;radiology;general;surgery;cardiology;neurology,clinic,clinic,"Via Masaniello 23, Milano, 20152",,,,,45.4628809,9.0908564,node,3373327796,https://www.openstreetmap.org/node/3373327796,ASST Nord Milano,,node/3373327796,"{""addr:city"": ""Milano"", ""addr:housenumber"": ""23"", ""addr:postcode"": ""20152"", ""addr:street"": ""Via Masaniello"", ""amenity"": ""clinic"", ""emergency"": ""no"", ""healthcare"": ""clinic"", ""healthcare:speciality"": ""gynaecology;ophthalmology;dentist;orthopaedics;dermatology;otolaryngology;radiology;general;surgery;cardiology;neurology"", ""name"": ""Poliambulatorio di via Masaniello"", ""operator"": ""ASST Nord Milano"", ""operator:type"": ""public""}"
IT,Pneumologia,,clinic,clinic,,+39 0874 313054,,,,41.5498239,14.6771613,node,3617702170,https://www.openstreetmap.org/node/3617702170,Asrem,,node/3617702170,"{""amenity"": ""clinic"", ""healthcare"": ""clinic"", ""name"": ""Pneumologia"", ""operator"": ""Asrem"", ""phone"": ""+39 0874 313054""}"
IT,Studio di Fisioterapia La Loggia,,clinic,clinic,,,,,,38.2285152,15.2382175,node,3702855920,https://www.openstreetmap.org/node/3702855920,Martina La Loggia,,node/3702855920,"{""amenity"": ""clinic"", ""healthcare"": ""clinic"", ""name"": ""Studio di Fisioterapia La Loggia"", ""operator"": ""Martina La Loggia""}"
IT,Distretto di Camponogara ULSS13,,clinic,clinic,"Piazzetta Unità D'Italia 5, Camponogara, 30010",,,,,45.3863823,12.0747274,node,3816226770,https://www.openstreetmap.org/node/3816226770,,,node/3816226770,"{""addr:city"": ""Camponogara"", ""addr:housenumber"": ""5"", ""addr:postcode"": ""30010"", ""addr:street"": ""Piazzetta Unità D'Italia"", ""amenity"": ""clinic"", ""healthcare"": ""clinic"", ""name"": ""Distretto di Camponogara ULSS13""}"
IT,Studio Ecografico Dottoressa Berasneva,ecografia;endocrinologia,doctor,doctors,"Via della Guercia 11, La Spezia, 19123 (unit P.Terra)",+39 0187 701840,,https://svetlanaberasneva.it,15:00-18:00,44.1237311,9.800345,node,3929519386,https://www.openstreetmap.org/node/3929519386,,,node/3929519386,"{""addr:city"": ""La Spezia"", ""addr:housenumber"": ""11"", ""addr:postcode"": ""19123"", ""addr:street"": ""Via della Guercia"", ""addr:unit"": ""P.Terra"", ""amenity"": ""doctors"", ""healthcare"": ""doctor"", ""healthcare:speciality"": ""ecografia;endocrinologia"", ""name"": ""Studio Ecografico Dottoressa Berasneva"", ""opening_hours"": ""15:00-18:00"", ""phone"": ""+39 0187 701840"", ""website"": ""https://svetlanaberasneva.it""}"
IT,Istituto Radiologico Toscano,radiology,clinic,clinic,"Via Giovan Battista Vico 2b, Pistoia, 51100",+39 0573 98 48 01,irt@alliancemedical.it,https://www.alliancemedical.it/centri-diagnostici/istituto-radiologico-toscano,,43.9216883,10.9240495,node,3981990066,https://www.openstreetmap.org/node/3981990066,Alliance Medical,,node/3981990066,"{""addr:city"": ""Pistoia"", ""addr:housenumber"": ""2b"", ""addr:postcode"": ""51100"", ""addr:street"": ""Via Giovan Battista Vico"", ""amenity"": ""clinic"", ""email"": ""irt@alliancemedical.it"", ""healthcare"": ""clinic"", ""healthcare:speciality"": ""radiology"", ""name"": ""Istituto Radiologico Toscano"", ""operator"": ""Alliance Medical"", ""phone"": ""+39 0573 98 48 01"", ""website"": ""https://www.alliancemedical.it/centri-diagnostici/istituto-radiologico-toscano""}"
IT,Logo medica,,clinic,clinic,"Via Roma 75 B, Urbania, 61049",,,,,43.6718552,12.5161227,node,4088983213,https://www.openstreetmap.org/node/4088983213,,,node/4088983213,"{""addr:city"": ""Urbania"", ""addr:housenumber"": ""75 B"", ""addr:postcode"": ""61049"", ""addr:street"": ""Via Roma"", ""amenity"": ""clinic"", ""description"": ""Studio di logopedia Dott.ssa Elisa Palini"", ""healthcare"": ""clinic"", ""level"": ""0"", ""name"": ""Logo medica""}"
IT,Centro Medico pneumologia e haloterapia,,doctor,doctors,2,,,,,45.7751974,12.8440784,node,4142734108,https://www.openstreetmap.org/node/4142734108,,,node/4142734108,"{""addr:housenumber"": ""2"", ""amenity"": ""doctors"", ""healthcare"": ""doctor"", ""name"": ""Centro Medico pneumologia e haloterapia""}"
IT,Studio di radiologia medica Dr. Sandro Calabrese,,doctor,doctors,"Via Lombardia 16, Lecce, 73100",+39 0832 331165,calabrese.studrad01@libero.it,https://www.radiologiacalabrese.com/,,40.3479315,18.1652249,node,4157060489,https://www.openstreetmap.org/node/4157060489,,,node/4157060489,"{""addr:city"": ""Lecce"", ""addr:housenumber"": ""16"", ""addr:postcode"": ""73100"", ""addr:street"": ""Via Lombardia"", ""amenity"": ""doctors"", ""email"": ""calabrese.studrad01@libero.it"", ""healthcare"": ""doctor"", ""name"": ""Studio di radiologia medica Dr. Sandro Calabrese"", ""phone"": ""+39 0832 331165"", ""phone:mobile"": ""+39 393 0401842"", ""website"": ""https://www.radiologiacalabrese.com/"", ""wheelchair"": ""limited""}"
IT,Fisiocard Radiologia Fisioterapia,,clinic,clinic,Roma,,,,,41.8826921,12.5889475,node,4213117774,https://www.openstreetmap.org/node/4213117774,,,node/4213117774,"{""addr:city"": ""Roma"", ""amenity"": ""clinic"", ""healthcare"": ""clinic"", ""name"": ""Fisiocard Radiologia Fisioterapia""}"
IT,Diabetologica,,doctor,doctors,,,,,,37.5674629,14.8969573,node,4232051994,https://www.openstreetmap.org/node/4232051994,,,node/4232051994,"{""amenity"": ""doctors"", ""healthcare"": ""doctor"", ""name"": ""Diabetologica""}"
IT,Associazione psicologia e psicoterapia Il Conventino,,hospital,hospital,,,,,,45.6877468,9.6756007,node,4287432469,https://www.openstreetmap.org/node/4287432469,,,node/4287432469,"{""amenity"": ""hospital"", ""healthcare"": ""hospital"", ""name"": ""Associazione psicologia e psicoterapia Il Conventino""}"
IT,Medicina clinica e patologie emergenti,,hospital,hospital,,,,,,38.1020951,13.3613242,node,4398955635,https://www.openstreetmap.org/node/4398955635,,,node/4398955635,"{""amenity"": ""hospital"", ""healthcare"": ""hospital"", ""name"": ""Medicina clinica e patologie emergenti""}"
IT,Maternità,gynaecology,hospital,hospital,,,,,,38.1035474,13.3563947,node,4398979217,https://www.openstreetmap.org/node/4398979217,,,node/4398979217,"{""amenity"": ""hospital"", ""healthcare"": ""hospital"", ""healthcare:speciality"": ""gynaecology"", ""name"": ""Maternità""}"
IT,Dott. Anna Nasti Specialista Endocrinologia,endocrinology,doctor,doctors,"Via Nazionale 701, Torre del Greco, 80059",,,,,40.7673681,14.4114979,node,4450387445,https://www.openstreetmap.org/node/4450387445,,,node/4450387445,"{""addr:city"": ""Torre del Greco"", ""addr:housenumber"": ""701"", ""addr:postcode"": ""80059"", ""addr:street"": ""Via Nazionale"", ""amenity"": ""doctors"", ""healthcare"": ""doctor"", ""healthcare:speciality"": ""endocrinology"", ""name"": ""Dott. Anna Nasti Specialista Endocrinologia""}"
IT,"Ospedale ""Guglielmo da Saliceto"" - Neurologia - Day Service",,hospital,hospital,"Via Campagna 64, Piacenza, 29121",,,,,45.0558309,9.6836322,node,4484518417,https://www.openstreetmap.org/node/4484518417,,,node/4484518417,"{""addr:city"": ""Piacenza"", ""addr:housenumber"": ""64"", ""addr:postcode"": ""29121"", ""addr:street"": ""Via Campagna"", ""amenity"": ""hospital"", ""healthcare"": ""hospital"", ""name"": ""Ospedale \""Guglielmo da Saliceto\"" - Neurologia - Day Service""}"
IT,D.I.M. Radiologia,radiology,doctor,doctors,,,,,,37.5750332,15.0563647,node,4508388370,https://www.openstreetmap.org/node/4508388370,,,node/4508388370,"{""amenity"": ""doctors"", ""healthcare"": ""doctor"", ""healthcare:speciality"": ""radiology"", ""name"": ""D.I.M. Radiologia""}"
IT,Radiologia MEC,radiology,doctor,doctors,,,,,,37.5778568,15.0554173,node,4515863682,https://www.openstreetmap.org/node/4515863682,,,node/4515863682,"{""amenity"": ""doctors"", ""healthcare"": ""doctor"", ""healthcare:speciality"": ""radiology"", ""name"": ""Radiologia MEC""}"
IT,Ginecologo Ventura Giancarlo,gynaecology,doctor,doctors,"Viale Regina Margherita 136, Pescara, 65122",+39 085 27080,,https://www.studiomedicoventura.it/,,42.477454,14.203026,node,4554436386,https://www.openstreetmap.org/node/4554436386,Dott. Ventura Giancarlo,,node/4554436386,"{""addr:city"": ""Pescara"", ""addr:housenumber"": ""136"", ""addr:postcode"": ""65122"", ""addr:street"": ""Viale Regina Margherita"", ""amenity"": ""doctors"", ""healthcare"": ""doctor"", ""healthcare:speciality"": ""gynaecology"", ""name"": ""Ginecologo Ventura Giancarlo"", ""operator"": ""Dott. Ventura Giancarlo"", ""phone"": ""+39 085 27080"", ""website"": ""https://www.studiomedicoventura.it/""}"
IT,Dott. Prof. Renato Scandroglio,,doctor,doctors,"Borgo Santo Spirito 12/a, Parma, 43125",,,,,44.8042171,10.3209591,node,4690755363,https://www.openstreetmap.org/node/4690755363,,,node/4690755363,"{""addr:city"": ""Parma"", ""addr:country"": ""IT"", ""addr:housenumber"": ""12/a"", ""addr:postcode"": ""43125"", ""addr:street"": ""Borgo Santo Spirito"", ""amenity"": ""doctors"", ""entrance"": ""main"", ""healthcare"": ""doctor"", ""level"": ""0"", ""loc_ref"": ""0981"", ""name"": ""Dott. Prof. Renato Scandroglio"", ""source"": ""survey""}"
IT,Promea S.p.A.,gynaecology;paediatrics;biology;urology;surgery;clinic;plastic_surgery;otolaryngology;ophthalmology,clinic,clinic,"Via Luigi Federico Menabrea 14, Torino, 10126",+39 011 6640800,info@promea.net,https://www.promea.net,,45.0427436,7.6747725,node,4735802143,https://www.openstreetmap.org/node/4735802143,,,node/4735802143,"{""addr:city"": ""Torino"", ""addr:housenumber"": ""14"", ""addr:postcode"": ""10126"", ""addr:street"": ""Via Luigi Federico Menabrea"", ""amenity"": ""clinic"", ""email"": ""info@promea.net"", ""emergency"": ""no"", ""healthcare"": ""clinic"", ""healthcare:speciality"": ""gynaecology;paediatrics;biology;urology;surgery;clinic;plastic_surgery;otolaryngology;ophthalmology"", ""internet_access"": ""yes"", ""name"": ""Promea S.p.A."", ""phone"": ""+39 011 6640800"", ""start_date"": ""2001-01-01"", ""website"": ""https://www.promea.net"", ""wheelchair"": ""yes""}"
IT,Ginecologia e Ostetricia Dott.ssa Federica Fabbri,gynaecology,doctor,doctors,Via Forlivese 2,,,,,44.2814102,11.8945829,node,4751654158,https://www.openstreetmap.org/node/4751654158,,,node/4751654158,"{""addr:housenumber"": ""2"", ""addr:street"": ""Via Forlivese"", ""amenity"": ""doctors"", ""healthcare"": ""doctor"", ""healthcare:speciality"": ""gynaecology"", ""mobile"": ""+39 371 362 4334"", ""name"": ""Ginecologia e Ostetricia Dott.ssa Federica Fabbri""}"
IT,Osteoglobalitè,,doctor,doctors,"Via fratelli Cervi 32, San Polo d'Enza",,,,,44.6624068,10.4280859,node,4757764945,https://www.openstreetmap.org/node/4757764945,,,node/4757764945,"{""addr:city"": ""San Polo d'Enza"", ""addr:housenumber"": ""32"", ""addr:street"": ""Via fratelli Cervi"", ""amenity"": ""doctors"", ""healthcare"": ""doctor"", ""name"": ""Osteoglobalitè""}"
IT,Centro traumatologico ortopedico - CTO,,hospital,hospital,"Largo Palagi 1, Firenze, 50139",,,,,43.8011357,11.2485654,node,4843432276,https://www.openstreetmap.org/node/4843432276,,,node/4843432276,"{""addr:city"": ""Firenze"", ""addr:housenumber"": ""1"", ""addr:postcode"": ""50139"", ""addr:street"": ""Largo Palagi"", ""amenity"": ""hospital"", ""healthcare"": ""hospital"", ""name"": ""Centro traumatologico ortopedico - CTO""}"
IT,Barbara Vallone - ecografista,radiology,doctor,,"Via dei Mille 25, Torino, 10123",,,,,45.0617193,7.6899999,node,4861447386,https://www.openstreetmap.org/node/4861447386,,,node/4861447386,"{""addr:city"": ""Torino"", ""addr:housenumber"": ""25"", ""addr:postcode"": ""10123"", ""addr:street"": ""Via dei Mille"", ""healthcare"": ""doctor"", ""healthcare:speciality"": ""radiology"", ""medical_system:western"": ""yes"", ""name"": ""Barbara Vallone - ecografista"", ""office"": ""physician"", ""source"": ""survey""}"
IT,Radiologia Recco,,clinic,clinic,,,,,,44.3622766,9.1432301,node,5040156114,https://www.openstreetmap.org/node/5040156114,,,node/5040156114,"{""amenity"": ""clinic"", ""healthcare"": ""clinic"", ""name"": ""Radiologia Recco""}"
IT,LCB Life Clinic Bologna,ophthalmology,clinic,clinic,Via del Lavoro 44,,,,,44.5068917,11.3572989,node,5102529722,https://www.openstreetmap.org/node/5102529722,,,node/5102529722,"{""addr:housenumber"": ""44"", ""addr:street"": ""Via del Lavoro"", ""amenity"": ""clinic"", ""check_date"": ""2025-01-29"", ""healthcare"": ""clinic"", ""healthcare:speciality"": ""ophthalmology"", ""name"": ""LCB Life Clinic Bologna"", ""old_name"": ""Nexive"", ""old_office"": ""company"", ""operator:type"": ""private""}"
IT,Cardologia,,doctor,doctors,,,,,,44.0608213,12.5711937,node,5175054138,https://www.openstreetmap.org/node/5175054138,,,node/5175054138,"{""amenity"": ""doctors"", ""healthcare"": ""doctor"", ""name"": ""Cardologia"", ""source:wheelchair"": ""survey"", ""wheelchair"": ""no""}"
IT,Studio radiologico Bernasconi,radiology,clinic,clinic,"Via Solferino 150, Seregno, 20831",+390362231726;+390362245495,,https://www.studioradiologicobernasconi.it/,"Mo-Fr 07:30-18:30; Sa, Su off",45.640001,9.1921758,node,5226094292,https://www.openstreetmap.org/node/5226094292,Studio Radiologico Bernasconi S.R.L.,,node/5226094292,"{""addr:city"": ""Seregno"", ""addr:housenumber"": ""150"", ""addr:postcode"": ""20831"", ""addr:street"": ""Via Solferino"", ""amenity"": ""clinic"", ""healthcare"": ""clinic"", ""healthcare:speciality"": ""radiology"", ""name"": ""Studio radiologico Bernasconi"", ""opening_hours"": ""Mo-Fr 07:30-18:30; Sa, Su off"", ""operator"": ""Studio Radiologico Bernasconi S.R.L."", ""operator:type"": ""private"", ""phone"": ""+390362231726;+390362245495"", ""ref:vatin"": ""IT00829210962"", ""website"": ""https://www.studioradiologicobernasconi.it/""}"
IT,Pronto Soccorso Ospedale Chioggia,,hospital,hospital,Chioggia,,,,,45.1981469,12.2821796,node,5233299187,https://www.openstreetmap.org/node/5233299187,,,node/5233299187,"{""addr:city"": ""Chioggia"", ""amenity"": ""hospital"", ""emergency"": ""yes"", ""healthcare"": ""hospital"", ""name"": ""Pronto Soccorso Ospedale Chioggia"", ""wheelchair"": ""yes""}"
IT,"Pronto Soccorso Ospedale ""G.P. Delogu""",,hospital,hospital,Ilartzi/Ghilarza,,,,,40.1206415,8.8349166,node,5244739904,https://www.openstreetmap.org/node/5244739904,,,node/5244739904,"{""addr:city"": ""Ilartzi/Ghilarza"", ""amenity"": ""hospital"", ""emergency"": ""yes"", ""healthcare"": ""hospital"", ""name"": ""Pronto Soccorso Ospedale \""G.P. Delogu\""""}"
IT,Centro Radiologico Piro,,clinic,clinic,,,,,,39.0803388,17.1131296,node,5316778762,https://www.openstreetmap.org/node/5316778762,,,node/5316778762,"{""amenity"": ""clinic"", ""healthcare"": ""clinic"", ""name"": ""Centro Radiologico Piro""}"
IT,Studio Medico Iozzi,gynaecology,clinic,clinic,,,,,,39.0783209,17.1212801,node,5316831516,https://www.openstreetmap.org/node/5316831516,,,node/5316831516,"{""amenity"": ""clinic"", ""healthcare"": ""clinic"", ""healthcare:speciality"": ""gynaecology"", ""name"": ""Studio Medico Iozzi""}"
IT,Studio Dermatologico Lunardon,dermatology,clinic,clinic,Via Gattamelata 2,+39 049751443,,,,45.3988183,11.8868567,node,5327548232,https://www.openstreetmap.org/node/5327548232,,,node/5327548232,"{""addr:housenumber"": ""2"", ""addr:street"": ""Via Gattamelata"", ""amenity"": ""clinic"", ""contact:phone"": ""+39 049751443"", ""healthcare"": ""clinic"", ""healthcare:speciality"": ""dermatology"", ""name"": ""Studio Dermatologico Lunardon""}"
IT,Dermatologo,,doctor,doctors,,,,,,41.6885022,15.3684276,node,5393502035,https://www.openstreetmap.org/node/5393502035,,,node/5393502035,"{""amenity"": ""doctors"", ""description"": ""Medico Chirurgo Dottoressa A. Giuliano"", ""healthcare"": ""doctor"", ""name"": ""Dermatologo""}"
IT,,general;gynaecology,doctor,doctors,,,,,,45.536152,9.3734748,node,5464799040,https://www.openstreetmap.org/node/5464799040,,,node/5464799040,"{""amenity"": ""doctors"", ""healthcare"": ""doctor"", ""healthcare:speciality"": ""general;gynaecology""}"
IT,Studio Radiologico San Lazzaro,,clinic,clinic,,+390444 563 455,info@studioradiologico.net,https://www.studioradiologico.net/,,45.5300144,11.5133349,node,5475474143,https://www.openstreetmap.org/node/5475474143,,,node/5475474143,"{""amenity"": ""clinic"", ""email"": ""info@studioradiologico.net"", ""fixme"": ""position"", ""healthcare"": ""clinic"", ""name"": ""Studio Radiologico San Lazzaro"", ""phone"": ""+390444 563 455"", ""website"": ""https://www.studioradiologico.net/""}"
IT,Pronto Soccorso Ostetrico-Ginecologico-Pediatrico,paediatrics,hospital,hospital,"Novara, 28100",,,,,45.4426888,8.6204013,node,5498192457,https://www.openstreetmap.org/node/5498192457,,,node/5498192457,"{""addr:city"": ""Novara"", ""addr:postcode"": ""28100"", ""amenity"": ""hospital"", ""emergency"": ""yes"", ""healthcare"": ""hospital"", ""healthcare:speciality"": ""paediatrics"", ""name"": ""Pronto Soccorso Ostetrico-Ginecologico-Pediatrico"", ""operator:type"": ""public""}"
IT,Centro Medico Salus,cardiology;general;orthopaedics;ophthalmology;gynaecology;otolaryngology;dermatology;psychiatry;urology;radiology;osteopathy;neurology;acupuncture;orthodontics;naturopathy;plastic_surgery;surgery,hospital,hospital,"Via Palmiro Togliatti 5, Cecina, 57023",+39 0586 630142,info@salustoscana.com,,,43.3105477,10.5358947,node,5503511169,https://www.openstreetmap.org/node/5503511169,Salus Toscana,,node/5503511169,"{""addr:city"": ""Cecina"", ""addr:housenumber"": ""5"", ""addr:postcode"": ""57023"", ""addr:street"": ""Via Palmiro Togliatti"", ""amenity"": ""hospital"", ""email"": ""info@salustoscana.com"", ""healthcare"": ""hospital"", ""healthcare:speciality"": ""cardiology;general;orthopaedics;ophthalmology;gynaecology;otolaryngology;dermatology;psychiatry;urology;radiology;osteopathy;neurology;acupuncture;orthodontics;naturopathy;plastic_surgery;surgery"", ""name"": ""Centro Medico Salus"", ""operator"": ""Salus Toscana"", ""phone"": ""+39 0586 630142""}"
IT,Gyneco Salus,gynaecology,centre,doctors,"Via del Discobolo 10, Perugia, 06132",,,,,43.1033973,12.3397095,node,5548883291,https://www.openstreetmap.org/node/5548883291,,,node/5548883291,"{""addr:city"": ""Perugia"", ""addr:country"": ""IT"", ""addr:housenumber"": ""10"", ""addr:postcode"": ""06132"", ""addr:street"": ""Via del Discobolo"", ""amenity"": ""doctors"", ""healthcare"": ""centre"", ""healthcare:speciality"": ""gynaecology"", ""name"": ""Gyneco Salus""}"
IT,Malattie Infettive e Microbiologia (Ospedale Torrette),,clinic,clinic,"Via Conca 51, Ancona, 60126",+39 0715963502,clinica.malattieinfettive@ospedaliriuniti.marche.it,,24/7,43.6012698,13.45388,node,5576210287,https://www.openstreetmap.org/node/5576210287,,,node/5576210287,"{""addr:city"": ""Ancona"", ""addr:housenumber"": ""51"", ""addr:postcode"": ""60126"", ""addr:street"": ""Via Conca"", ""amenity"": ""clinic"", ""email"": ""clinica.malattieinfettive@ospedaliriuniti.marche.it"", ""fax"": ""+39 0715963701"", ""healthcare"": ""clinic"", ""name"": ""Malattie Infettive e Microbiologia (Ospedale Torrette)"", ""opening_hours"": ""24/7"", ""phone"": ""+39 0715963502"", ""wheelchair"": ""yes""}"
IT,Francesca Ullo,gynaecology,doctor,doctors,,+39 090 9288428,francescaullo@tiscali.it,https://www.studioginecologicoullo.it,,38.2209061,15.2385899,node,5650022782,https://www.openstreetmap.org/node/5650022782,,,node/5650022782,"{""amenity"": ""doctors"", ""contact:email"": ""francescaullo@tiscali.it"", ""contact:phone"": ""+39 090 9288428"", ""contact:website"": ""https://www.studioginecologicoullo.it"", ""healthcare"": ""doctor"", ""healthcare:speciality"": ""gynaecology"", ""level"": ""0"", ""name"": ""Francesca Ullo"", ""wheelchair"": ""no""}"
IT,Centro Diagnostico Bios Bracciano,blood_check;general_practice;microbiology;radiology;gynaecology;orthodontics,clinic,clinic,"Via del Fornaccio 1/3, Bracciano, 00062",+390699805073,info@bios-bracciano.it,https://bios-bracciano.it/,Mo-Fr 07:00-19:30; Su 07:30-13:00; PH off; Sa 07:00-17:00,42.1042198,12.1746434,node,5693946816,https://www.openstreetmap.org/node/5693946816,Bios S.p.A.,,node/5693946816,"{""addr:city"": ""Bracciano"", ""addr:housenumber"": ""1/3"", ""addr:postcode"": ""00062"", ""addr:street"": ""Via del Fornaccio"", ""amenity"": ""clinic"", ""email"": ""info@bios-bracciano.it"", ""healthcare"": ""clinic"", ""healthcare:speciality"": ""blood_check;general_practice;microbiology;radiology;gynaecology;orthodontics"", ""name"": ""Centro Diagnostico Bios Bracciano"", ""opening_hours"": ""Mo-Fr 07:00-19:30; Su 07:30-13:00; PH off; Sa 07:00-17:00"", ""operator"": ""Bios S.p.A."", ""operator:type"": ""private"", ""phone"": ""+390699805073"", ""website"": ""https://bios-bracciano.it/"", ""wheelchair"": ""yes""}"
IT,C.R.U. - Centro Riproduzione Umana,fertility;gynaecology,clinic,clinic,"Via Trento 20, 98123",+39090695570,info@crumessina.it,,,38.1796022,15.5518402,node,5718153270,https://www.openstreetmap.org/node/5718153270,,,node/5718153270,"{""addr:housenumber"": ""20"", ""addr:postcode"": ""98123"", ""addr:street"": ""Via Trento"", ""amenity"": ""clinic"", ""email"": ""info@crumessina.it"", ""healthcare"": ""clinic"", ""healthcare:speciality"": ""fertility;gynaecology"", ""name"": ""C.R.U. - Centro Riproduzione Umana"", ""phone"": ""+39090695570""}"
IT,Antonella Giorgianni,gynaecology,doctor,doctors,,,,,,38.1451515,15.2154532,node,5718238433,https://www.openstreetmap.org/node/5718238433,,,node/5718238433,"{""amenity"": ""doctors"", ""healthcare"": ""doctor"", ""healthcare:speciality"": ""gynaecology"", ""level"": ""1"", ""name"": ""Antonella Giorgianni"", ""wheelchair"": ""no""}"
IT,Centro di Dermatologia,dermatology,doctor,doctors,,,,https://www.centrodermatologicocatalfamo.it/,,38.1501202,15.2114207,node,5725863291,https://www.openstreetmap.org/node/5725863291,,,node/5725863291,"{""amenity"": ""doctors"", ""contact:website"": ""https://www.centrodermatologicocatalfamo.it/"", ""healthcare"": ""doctor"", ""healthcare:speciality"": ""dermatology"", ""level"": ""2"", ""name"": ""Centro di Dermatologia"", ""wheelchair"": ""yes""}"
IT,dNa Milano Centro Medico Interdisciplinare Nutrizione e Psicologia,nutritionist;psychology;gynaecology;orthopaedics;general;dermatology;osteopathy;physiotherapy;biology;naturopathy;dermatovenereology;internal,clinic,clinic,"Viale Monza 270, Milano, 20128",,,,,45.5167367,9.2261619,node,5771185652,https://www.openstreetmap.org/node/5771185652,Centro Medico Privato,,node/5771185652,"{""addr:city"": ""Milano"", ""addr:housenumber"": ""270"", ""addr:postcode"": ""20128"", ""addr:street"": ""Viale Monza"", ""amenity"": ""clinic"", ""emergency"": ""no"", ""healthcare"": ""clinic"", ""healthcare:speciality"": ""nutritionist;psychology;gynaecology;orthopaedics;general;dermatology;osteopathy;physiotherapy;biology;naturopathy;dermatovenereology;internal"", ""name"": ""dNa Milano Centro Medico Interdisciplinare Nutrizione e Psicologia"", ""operator"": ""Centro Medico Privato""}"
IT,Dipartimento Dipendenze Patologiche,,hospital,hospital,"Via San Severo 54, Foggia, 71121",,,,,41.4698976,15.5394218,node,5784845069,https://www.openstreetmap.org/node/5784845069,ASL,,node/5784845069,"{""addr:city"": ""Foggia"", ""addr:housenumber"": ""54"", ""addr:postcode"": ""71121"", ""addr:street"": ""Via San Severo"", ""amenity"": ""hospital"", ""healthcare"": ""hospital"", ""name"": ""Dipartimento Dipendenze Patologiche"", ""operator"": ""ASL""}"
IT,Centro Radiologico e Fisioterapeutico SS. Trinità,,clinic,clinic,"Via Tiziano Minio 42a, Padova",+39 049 616866,,https://www.centrosstrinita.it/,,45.4249804,11.8795147,node,5805223426,https://www.openstreetmap.org/node/5805223426,,,node/5805223426,"{""addr:city"": ""Padova"", ""addr:housenumber"": ""42a"", ""addr:street"": ""Via Tiziano Minio"", ""amenity"": ""clinic"", ""healthcare"": ""clinic"", ""name"": ""Centro Radiologico e Fisioterapeutico SS. Trinità"", ""phone"": ""+39 049 616866"", ""website"": ""https://www.centrosstrinita.it/""}"
IT,Oftalmologia (Oculistica),,hospital,,,,,,,41.1113484,16.8582065,node,5808141370,https://www.openstreetmap.org/node/5808141370,,,node/5808141370,"{""healthcare"": ""hospital"", ""name"": ""Oftalmologia (Oculistica)""}"
IT,Maternità Ginecologia Ospedale Maggiore,gynaecology;birthing_centre,,,,,,,,44.5062327,11.3162126,node,5841740731,https://www.openstreetmap.org/node/5841740731,,,node/5841740731,"{""emergency"": ""yes"", ""entrance"": ""yes"", ""healthcare:speciality"": ""gynaecology;birthing_centre"", ""name"": ""Maternità Ginecologia Ospedale Maggiore""}"
IT,Pronto Soccorso Ostetrico Ginecologico,gynaecology;birthing_centre,,,"Via Giuseppe Massarenti 13, Bologna, 40138",,,,24/7,44.4917019,11.3628644,node,5850863020,https://www.openstreetmap.org/node/5850863020,Policlinico Sant'Orsola Malpighi,,node/5850863020,"{""addr:city"": ""Bologna"", ""addr:housenumber"": ""13"", ""addr:postcode"": ""40138"", ""addr:street"": ""Via Giuseppe Massarenti"", ""emergency"": ""emergency_ward_entrance"", ""emergency_ward_entrance"": ""all"", ""entrance"": ""yes"", ""healthcare:speciality"": ""gynaecology;birthing_centre"", ""level"": ""0"", ""name"": ""Pronto Soccorso Ostetrico Ginecologico"", ""opening_hours"": ""24/7"", ""operator"": ""Policlinico Sant'Orsola Malpighi"", ""wheelchair"": ""yes""}"
IT,Medical Center Meran - Merano,general;orthopaedics;dermatology;acupuncture;clinic;physiotherapy;gynaecology;podologist;psychology;first_aid_training;internal;nutritionist;health;weight_loss,clinic,clinic,"Mühlgraben - Via Fossato Molini 32, Meran - Merano, 39012",+39 0473 233689,info@medicalcentermerano.it,https://www.medicalcentermerano.it/,,46.671219,11.1609406,node,5870928450,https://www.openstreetmap.org/node/5870928450,,,node/5870928450,"{""addr:city"": ""Meran - Merano"", ""addr:city:de"": ""Meran"", ""addr:city:it"": ""Merano"", ""addr:housenumber"": ""32"", ""addr:postcode"": ""39012"", ""addr:street"": ""Mühlgraben - Via Fossato Molini"", ""addr:street:de"": ""Mühlgraben"", ""addr:street:it"": ""Via Fossato Molini"", ""amenity"": ""clinic"", ""email"": ""info@medicalcentermerano.it"", ""emergency"": ""defibrillator"", ""facebook"": ""https://it-it.facebook.com/MedicalCenterMerano/"", ""fax"": ""+39 0473 427537"", ""healthcare"": ""clinic"", ""healthcare:speciality"": ""general;orthopaedics;dermatology;acupuncture;clinic;physiotherapy;gynaecology;podologist;psychology;first_aid_training;internal;nutritionist;health;weight_loss"", ""name"": ""Medical Center Meran - Merano"", ""name:de"": ""Medical Center Meran"", ""phone"": ""+39 0473 233689"", ""website"": ""https://www.medicalcentermerano.it/""}"
IT,Pesole Antonella Paola,gynaecology,doctor,doctors,,,,,"""by appointment""",45.4948514,9.6465021,node,5887632187,https://www.openstreetmap.org/node/5887632187,,,node/5887632187,"{""amenity"": ""doctors"", ""check_date"": ""2022-05-28"", ""healthcare"": ""doctor"", ""healthcare:speciality"": ""gynaecology"", ""internet_access"": ""no"", ""level"": ""0"", ""name"": ""Pesole Antonella Paola"", ""opening_hours"": ""\""by appointment\"""", ""wheelchair"": ""yes""}"
IT,Dr. Aurelia Vogl,,doctor,doctors,,,,,,46.6413104,11.5675516,node,5906014158,https://www.openstreetmap.org/node/5906014158,,,node/5906014158,"{""amenity"": ""doctors"", ""healthcare"": ""doctor"", ""name"": ""Dr. Aurelia Vogl"", ""wheelchair"": ""yes""}"
IT,U.S.M.A.F. Bologna,,clinic,clinic,,,,,,44.5291805,11.2950093,node,5910078245,https://www.openstreetmap.org/node/5910078245,Ministero della Sanità,,node/5910078245,"{""amenity"": ""clinic"", ""description"": ""Uffici di sanità marittima, aerea e di frontiera"", ""healthcare"": ""clinic"", ""name"": ""U.S.M.A.F. Bologna"", ""operator"": ""Ministero della Sanità""}"
IT,"Int. 2 - Direzione, Pediatria, Ginecologia",gynaecology;paediatrics,,,(unit 2),,,,,42.2299593,14.3966414,node,5938498017,https://www.openstreetmap.org/node/5938498017,Ospedale Renzetti,,node/5938498017,"{""addr:unit"": ""2"", ""entrance"": ""yes"", ""healthcare:speciality"": ""gynaecology;paediatrics"", ""name"": ""Int. 2 - Direzione, Pediatria, Ginecologia"", ""operator"": ""Ospedale Renzetti"", ""ref"": ""2""}"
IT,Centro diagnostico San Giorgio,allergology;angiology;cardiology;plastic_surgery;dermatology;diabetology;endocrinology;physiatry;gastroenterology;occupational;neurology;orthopaedics;otolaryngology;gynaecology;pulmonology;rheumatology;urology;nuclear,clinic,clinic,"Via Federico Zeuner 5, Seveso, 20822",+390362570040,info@centrodiagnosticosangiorgio.com;cdsg@legpec.it,http://centrodiagnostico-sangiorgio.com/,,45.6501527,9.139739,node,6002734570,https://www.openstreetmap.org/node/6002734570,Centro Diagnostico San Giorgio S.r.l.,,node/6002734570,"{""addr:city"": ""Seveso"", ""addr:housenumber"": ""5"", ""addr:postcode"": ""20822"", ""addr:street"": ""Via Federico Zeuner"", ""amenity"": ""clinic"", ""email"": ""info@centrodiagnosticosangiorgio.com;cdsg@legpec.it"", ""fax"": ""+390362570072"", ""healthcare"": ""clinic"", ""healthcare:speciality"": ""allergology;angiology;cardiology;plastic_surgery;dermatology;diabetology;endocrinology;physiatry;gastroenterology;occupational;neurology;orthopaedics;otolaryngology;gynaecology;pulmonology;rheumatology;urology;nuclear"", ""name"": ""Centro diagnostico San Giorgio"", ""operator"": ""Centro Diagnostico San Giorgio S.r.l."", ""operator:type"": ""private"", ""phone"": ""+390362570040"", ""ref:vatin"": ""IT02003860968"", ""website"": ""http://centrodiagnostico-sangiorgio.com/""}"
IT,Nicola D'Urso,gynaecology,doctor,doctors,Via Antonio Laghi 60,,,,,44.2934728,11.8767665,node,6017372066,https://www.openstreetmap.org/node/6017372066,,,node/6017372066,"{""addr:housenumber"": ""60"", ""addr:street"": ""Via Antonio Laghi"", ""amenity"": ""doctors"", ""healthcare"": ""doctor"", ""healthcare:speciality"": ""gynaecology"", ""name"": ""Nicola D'Urso""}"
IT,Pronto Soccorso Presidio Ospedaliero Oglio Po,,hospital,,"Ingresso Pronto Soccorso, Oglio Po",,,,,44.9747857,10.4675606,node,6089949838,https://www.openstreetmap.org/node/6089949838,,,node/6089949838,"{""addr:city"": ""Oglio Po"", ""addr:street"": ""Ingresso Pronto Soccorso"", ""emergency"": ""emergency_ward_entrance"", ""healthcare"": ""hospital"", ""name"": ""Pronto Soccorso Presidio Ospedaliero Oglio Po""}"
IT,Pronto Soccorso Centro Traumatologico Ortopedico,,hospital,,,,,,,45.5256854,9.213333,node,6131365496,https://www.openstreetmap.org/node/6131365496,,,node/6131365496,"{""check_date"": ""2025-12-25"", ""emergency"": ""emergency_ward_entrance"", ""healthcare"": ""hospital"", ""name"": ""Pronto Soccorso Centro Traumatologico Ortopedico""}"
IT,Pronto Soccorso Centro Cardiologico Monzino,cardiology,hospital,,"Via Elio Vittorini, Milano, 20138",,,,,45.4441343,9.2616518,node,6148354990,https://www.openstreetmap.org/node/6148354990,,,node/6148354990,"{""addr:city"": ""Milano"", ""addr:postcode"": ""20138"", ""addr:street"": ""Via Elio Vittorini"", ""emergency"": ""emergency_ward_entrance"", ""healthcare"": ""hospital"", ""healthcare:speciality"": ""cardiology"", ""name"": ""Pronto Soccorso Centro Cardiologico Monzino""}"
IT,Pronto Soccorso Istituto Auxologico San Luca,,hospital,,,,,,,45.471838,9.1450333,node,6165363171,https://www.openstreetmap.org/node/6165363171,,,node/6165363171,"{""emergency"": ""emergency_ward_entrance"", ""entrance"": ""yes"", ""healthcare"": ""hospital"", ""name"": ""Pronto Soccorso Istituto Auxologico San Luca""}"
IT,Nicola Radogna,,doctor,doctors,"Via Conella 3/A, 70010",,,,,41.0036691,16.8699156,node,6198439709,https://www.openstreetmap.org/node/6198439709,,,node/6198439709,"{""addr:housenumber"": ""3/A"", ""addr:postcode"": ""70010"", ""addr:street"": ""Via Conella"", ""amenity"": ""doctors"", ""healthcare"": ""doctor"", ""name"": ""Nicola Radogna""}"
IT,Ambulatorio nefrourologico Sirnephros,,doctor,doctors,,,,,,37.0858985,15.2726685,node,6219920479,https://www.openstreetmap.org/node/6219920479,,,node/6219920479,"{""amenity"": ""doctors"", ""healthcare"": ""doctor"", ""name"": ""Ambulatorio nefrourologico Sirnephros""}"
IT,AISPS Roma - Centro di Sessuologia,,clinic,clinic,"Via Baldo degli Ubaldi 330, Roma, 00167",,,,,41.9017366,12.4396529,node,6221919884,https://www.openstreetmap.org/node/6221919884,AISPS,,node/6221919884,"{""addr:city"": ""Roma"", ""addr:housenumber"": ""330"", ""addr:postcode"": ""00167"", ""addr:street"": ""Via Baldo degli Ubaldi"", ""amenity"": ""clinic"", ""healthcare"": ""clinic"", ""name"": ""AISPS Roma - Centro di Sessuologia"", ""operator"": ""AISPS""}"
IT,AIRAM Centro Medico Bologna,clinic;general,hospital,hospital,"Via Lame 165, Castel Maggiore, 40013",,,,,44.5569793,11.3217997,node,6261971968,https://www.openstreetmap.org/node/6261971968,,,node/6261971968,"{""addr:city"": ""Castel Maggiore"", ""addr:housenumber"": ""165"", ""addr:postcode"": ""40013"", ""addr:street"": ""Via Lame"", ""amenity"": ""hospital"", ""healthcare"": ""hospital"", ""healthcare:speciality"": ""clinic;general"", ""name"": ""AIRAM Centro Medico Bologna""}"
IT,AIRAM Centro Fisioterapico Bologna,physiotherapy,hospital,hospital,"Via Lame 165, Castel Maggiore, 40013",,,,,44.556991,11.3216195,node,6261985118,https://www.openstreetmap.org/node/6261985118,,,node/6261985118,"{""addr:city"": ""Castel Maggiore"", ""addr:housenumber"": ""165"", ""addr:postcode"": ""40013"", ""addr:street"": ""Via Lame"", ""amenity"": ""hospital"", ""healthcare"": ""hospital"", ""healthcare:speciality"": ""physiotherapy"", ""name"": ""AIRAM Centro Fisioterapico Bologna""}"
IT,AIRAM Clinica Odontoiatrica Bologna,orthodontics;dentist,hospital,hospital,"Via Lame 165, Castel Maggiore, 40013",,,,,44.5570362,11.3217267,node,6262002481,https://www.openstreetmap.org/node/6262002481,,,node/6262002481,"{""addr:city"": ""Castel Maggiore"", ""addr:housenumber"": ""165"", ""addr:postcode"": ""40013"", ""addr:street"": ""Via Lame"", ""amenity"": ""hospital"", ""healthcare"": ""hospital"", ""healthcare:speciality"": ""orthodontics;dentist"", ""name"": ""AIRAM Clinica Odontoiatrica Bologna""}"
IT,AIRAM Clinica di Medicina Estetica Bologna,surgery,hospital,hospital,"Via Lame 165, Castel Maggiore, 40013",,,,,44.5569435,11.321724,node,6262012792,https://www.openstreetmap.org/node/6262012792,,,node/6262012792,"{""addr:city"": ""Castel Maggiore"", ""addr:housenumber"": ""165"", ""addr:postcode"": ""40013"", ""addr:street"": ""Via Lame"", ""amenity"": ""hospital"", ""healthcare"": ""hospital"", ""healthcare:speciality"": ""surgery"", ""name"": ""AIRAM Clinica di Medicina Estetica Bologna""}"
IT,Studi medici odontoiatrici Di Santi,general;dentist;dermatology;gynaecology;paediatrics;chiropractic;orthopaedics;psychiatry;urology;surgery;radiology;ophthalmology;cardiology,dentist,dentist,"Via Fiego, Atena Lucana, 84030",,studimedicidisanti@gmail.com,https://www.dentistavallodidiano.it/,Mo-Su 09:00-21:00,40.4825995,15.5292072,node,6269762994,https://www.openstreetmap.org/node/6269762994,,,node/6269762994,"{""addr:city"": ""Atena Lucana"", ""addr:postcode"": ""84030"", ""addr:street"": ""Via Fiego"", ""amenity"": ""dentist"", ""email"": ""studimedicidisanti@gmail.com"", ""healthcare"": ""dentist"", ""healthcare:speciality"": ""general;dentist;dermatology;gynaecology;paediatrics;chiropractic;orthopaedics;psychiatry;urology;surgery;radiology;ophthalmology;cardiology"", ""name"": ""Studi medici odontoiatrici Di Santi"", ""nohousenumber"": ""yes"", ""opening_hours"": ""Mo-Su 09:00-21:00"", ""website"": ""https://www.dentistavallodidiano.it/""}"
IT,Centro Podologico Lissandrello,,doctor,doctors,,,,,,37.0866145,15.283757,node,6274948707,https://www.openstreetmap.org/node/6274948707,,,node/6274948707,"{""amenity"": ""doctors"", ""healthcare"": ""doctor"", ""name"": ""Centro Podologico Lissandrello""}"
IT,Centro Podologico Assenza,,doctor,doctors,,,,,,37.0704024,15.2852427,node,6304756134,https://www.openstreetmap.org/node/6304756134,,,node/6304756134,"{""amenity"": ""doctors"", ""healthcare"": ""doctor"", ""name"": ""Centro Podologico Assenza""}"
IT,Ambulatori Curami,angiology;cardiology;surgery;dermatovenereology;endocrinology;physiotherapy;geriatrics;gynaecology;ophthalmology;orthopaedics;otorhinolaryngology;paediatrics;chiropody;radiology;urology;dentistry,clinic,clinic,"Via Cassia Nord 1, Siena, 53100",+39 0577 975858,info@curamisiena.it,https://www.curamisiena.it/,,43.3434084,11.3054111,node,6360031260,https://www.openstreetmap.org/node/6360031260,Curami Impresa Sociale s.r.l.,,node/6360031260,"{""addr:city"": ""Siena"", ""addr:housenumber"": ""1"", ""addr:postcode"": ""53100"", ""addr:street"": ""Via Cassia Nord"", ""amenity"": ""clinic"", ""email"": ""info@curamisiena.it"", ""healthcare"": ""clinic"", ""healthcare:speciality"": ""angiology;cardiology;surgery;dermatovenereology;endocrinology;physiotherapy;geriatrics;gynaecology;ophthalmology;orthopaedics;otorhinolaryngology;paediatrics;chiropody;radiology;urology;dentistry"", ""name"": ""Ambulatori Curami"", ""operator"": ""Curami Impresa Sociale s.r.l."", ""payment:cash"": ""yes"", ""payment:credit_cards"": ""yes"", ""payment:debit_cards"": ""yes"", ""phone"": ""+39 0577 975858"", ""website"": ""https://www.curamisiena.it/"", ""wheelchair"": ""yes""}"
IT,Pontoglio Dario,,doctor,doctors,,,,,,45.6013204,9.8912775,node,6425806772,https://www.openstreetmap.org/node/6425806772,,,node/6425806772,"{""amenity"": ""doctors"", ""healthcare"": ""doctor"", ""name"": ""Pontoglio Dario""}"
IT,Dott.ssa Pogliani Maria Cristina,general,doctor,doctors,"Via Tre Venezie 108a, Meda, 20821",+393452416833,,,,45.6513951,9.1682558,node,6534752044,https://www.openstreetmap.org/node/6534752044,Dott.ssa Pogliani Maria Cristina,,node/6534752044,"{""addr:city"": ""Meda"", ""addr:housenumber"": ""108a"", ""addr:postcode"": ""20821"", ""addr:street"": ""Via Tre Venezie"", ""amenity"": ""doctors"", ""healthcare"": ""doctor"", ""healthcare:speciality"": ""general"", ""name"": ""Dott.ssa Pogliani Maria Cristina"", ""operator"": ""Dott.ssa Pogliani Maria Cristina"", ""phone"": ""+393452416833""}"
IT,Croce Rossa - Montoggio,,hospital,,"Via Roma 88, Montoggio",,,,,44.5141553,9.0452539,node,6541855003,https://www.openstreetmap.org/node/6541855003,,,node/6541855003,"{""addr:city"": ""Montoggio"", ""addr:housenumber"": ""88"", ""addr:street"": ""Via Roma"", ""emergency"": ""ambulance_station"", ""healthcare"": ""hospital"", ""name"": ""Croce Rossa - Montoggio""}"
IT,Dottoressa Caspani Daniela Francesca,gynaecology,doctor,doctors,"Via Beata Vergine 9, Misano di Gera d'Adda",,,,,45.4785303,9.6276881,node,6661095523,https://www.openstreetmap.org/node/6661095523,,,node/6661095523,"{""addr:city"": ""Misano di Gera d'Adda"", ""addr:housenumber"": ""9"", ""addr:street"": ""Via Beata Vergine"", ""amenity"": ""doctors"", ""healthcare"": ""doctor"", ""healthcare:speciality"": ""gynaecology"", ""level"": ""0"", ""name"": ""Dottoressa Caspani Daniela Francesca"", ""wheelchair"": ""yes""}"
IT,Ambulatorio Ginecologico dr. Mario Marando,gynaecology;obstetrics,doctor,doctors,Piazza Brescia 1,+39 0421 371770,,,,45.5015626,12.632299,node,6697078329,https://www.openstreetmap.org/node/6697078329,,,node/6697078329,"{""addr:housenumber"": ""1"", ""addr:street"": ""Piazza Brescia"", ""amenity"": ""doctors"", ""healthcare"": ""doctor"", ""healthcare:speciality"": ""gynaecology;obstetrics"", ""name"": ""Ambulatorio Ginecologico dr. Mario Marando"", ""phone"": ""+39 0421 371770""}"
IT,Studio Medico Radiologico Dr. Carmelo Bodanza,radiology,doctor,doctors,Via Cesare Battisti 99,+39 0421 351005,,https://www.studiobodanza.it/,,45.5366322,12.6450836,node,6697080090,https://www.openstreetmap.org/node/6697080090,,,node/6697080090,"{""addr:housenumber"": ""99"", ""addr:street"": ""Via Cesare Battisti"", ""amenity"": ""doctors"", ""healthcare"": ""doctor"", ""healthcare:speciality"": ""radiology"", ""name"": ""Studio Medico Radiologico Dr. Carmelo Bodanza"", ""phone"": ""+39 0421 351005"", ""website"": ""https://www.studiobodanza.it/""}"
IT,Dermatologa Dott.ssa Donatella Bernardi,dermatology,doctor,doctors,Piazza Brescia 10,+39 0421 370545,,https://www.bernardidrdonatella.com,,45.50182,12.6321375,node,6697090086,https://www.openstreetmap.org/node/6697090086,,,node/6697090086,"{""addr:housenumber"": ""10"", ""addr:street"": ""Piazza Brescia"", ""amenity"": ""doctors"", ""healthcare"": ""doctor"", ""healthcare:speciality"": ""dermatology"", ""name"": ""Dermatologa Dott.ssa Donatella Bernardi"", ""phone"": ""+39 0421 370545"", ""website"": ""https://www.bernardidrdonatella.com""}"
IT,Ambulatorio Ginecologico Dr. Monica Dal Pozzo,gynaecology;obstetrics,doctor,doctors,Via Aquileia 2t,+39 0421 92317,,,,45.5069063,12.6431409,node,6697142887,https://www.openstreetmap.org/node/6697142887,,,node/6697142887,"{""addr:housenumber"": ""2t"", ""addr:street"": ""Via Aquileia"", ""amenity"": ""doctors"", ""healthcare"": ""doctor"", ""healthcare:speciality"": ""gynaecology;obstetrics"", ""name"": ""Ambulatorio Ginecologico Dr. Monica Dal Pozzo"", ""phone"": ""+39 0421 92317""}"
IT,Ginecologia,gynaecology,yes,,,,,,,43.4025192,10.8721237,node,6744727650,https://www.openstreetmap.org/node/6744727650,,,node/6744727650,"{""healthcare"": ""yes"", ""healthcare:speciality"": ""gynaecology"", ""name"": ""Ginecologia""}"
IT,D.ssa Danzi Rita;Dr.Ferri Enrico;,gynaecology;general;oculista;medico_legale,doctor,doctors,"Via Umberto I 24, Monzambano, 46040",,,,,45.3864343,10.6933,node,6836672435,https://www.openstreetmap.org/node/6836672435,,,node/6836672435,"{""addr:city"": ""Monzambano"", ""addr:housenumber"": ""24"", ""addr:postcode"": ""46040"", ""addr:street"": ""Via Umberto I"", ""amenity"": ""doctors"", ""healthcare"": ""doctor"", ""healthcare:speciality"": ""gynaecology;general;oculista;medico_legale"", ""name"": ""D.ssa Danzi Rita;Dr.Ferri Enrico;""}"
IT,Sandonato Medica,allergology;angiology;cardiology;plastic_surgery;dermatology;diabetology;haematology;endocrinology;hepatology;gastroenterology;gynaecology;occupational;neurology;orthodontics;osteopathy;otolaryngology;paediatrics;pulmonology;podiatry;urology;blood_check,clinic,clinic,"Via Bruxelles 10, San Donato Milanese, 20097",,,https://www.sandonatomedica.it/,Mo-Fr 09:00-19:30,45.4197222,9.2573885,node,6855860235,https://www.openstreetmap.org/node/6855860235,,,node/6855860235,"{""addr:city"": ""San Donato Milanese"", ""addr:housenumber"": ""10"", ""addr:postcode"": ""20097"", ""addr:street"": ""Via Bruxelles"", ""amenity"": ""clinic"", ""healthcare"": ""clinic"", ""healthcare:speciality"": ""allergology;angiology;cardiology;plastic_surgery;dermatology;diabetology;haematology;endocrinology;hepatology;gastroenterology;gynaecology;occupational;neurology;orthodontics;osteopathy;otolaryngology;paediatrics;pulmonology;podiatry;urology;blood_check"", ""name"": ""Sandonato Medica"", ""opening_hours"": ""Mo-Fr 09:00-19:30"", ""website"": ""https://www.sandonatomedica.it/""}"
IT,Ematolab,biology;cardiology;gynaecology;gastroenterology;otolaryngology;nutrition,clinic,clinic,"Via Francesco Laparelli 66, Roma, 00176",+39 06 24304591,info@ematolab.it,https://www.ematolab.com/,"Mo-Fr 07:30-12:30, 15:30-18:00; Sa 07:30-12:30",41.879644,12.5394462,node,6867751502,https://www.openstreetmap.org/node/6867751502,Ematolab S.n.c.,,node/6867751502,"{""addr:city"": ""Roma"", ""addr:housenumber"": ""66"", ""addr:postcode"": ""00176"", ""addr:street"": ""Via Francesco Laparelli"", ""amenity"": ""clinic"", ""email"": ""info@ematolab.it"", ""fax"": ""+390689281395"", ""healthcare"": ""clinic"", ""healthcare:speciality"": ""biology;cardiology;gynaecology;gastroenterology;otolaryngology;nutrition"", ""name"": ""Ematolab"", ""opening_hours"": ""Mo-Fr 07:30-12:30, 15:30-18:00; Sa 07:30-12:30"", ""operator"": ""Ematolab S.n.c."", ""operator:type"": ""private"", ""payment:cash"": ""yes"", ""payment:credit_cards"": ""yes"", ""payment:debit_cards"": ""yes"", ""phone"": ""+39 06 24304591"", ""website"": ""https://www.ematolab.com/""}"
IT,Studio radiologico Tenconi,radiology;physiotherapy,clinic,,"Via Giuseppe Dezza 26, Milano, 20144",,,,,45.4603167,9.1606058,node,6879782224,https://www.openstreetmap.org/node/6879782224,,,node/6879782224,"{""addr:city"": ""Milano"", ""addr:housenumber"": ""26"", ""addr:postcode"": ""20144"", ""addr:street"": ""Via Giuseppe Dezza"", ""healthcare"": ""clinic"", ""healthcare:speciality"": ""radiology;physiotherapy"", ""name"": ""Studio radiologico Tenconi""}"
IT,Opera Giosue' Signori - Istituto Medico Psicopedagogico,,clinic,clinic,,,,,,44.4195343,8.9405738,node,7012215130,https://www.openstreetmap.org/node/7012215130,,,node/7012215130,"{""amenity"": ""clinic"", ""healthcare"": ""clinic"", ""name"": ""Opera Giosue' Signori - Istituto Medico Psicopedagogico""}"
IT,"Dott. Sergio Zulli Gine, Ginecologo",gynaecology,doctor,doctors,"Via Giuseppe Parini 14, Pescara, 65122",,,,,42.4713125,14.2109927,node,7170526804,https://www.openstreetmap.org/node/7170526804,,,node/7170526804,"{""addr:city"": ""Pescara"", ""addr:housenumber"": ""14"", ""addr:postcode"": ""65122"", ""addr:street"": ""Via Giuseppe Parini"", ""amenity"": ""doctors"", ""healthcare"": ""doctor"", ""healthcare:speciality"": ""gynaecology"", ""name"": ""Dott. Sergio Zulli Gine, Ginecologo"", ""phone:mobile"": ""+39 327 656 8001""}"
IT,Olga Sochirca,gynaecology,doctor,doctors,"Via Filadelfia 155/8, Torino, 10137",,,https://www.studioolgasochirca.it/,"""by appointment""",45.0424544,7.6416832,node,7177633611,https://www.openstreetmap.org/node/7177633611,,,node/7177633611,"{""addr:city"": ""Torino"", ""addr:housenumber"": ""155/8"", ""addr:postcode"": ""10137"", ""addr:street"": ""Via Filadelfia"", ""amenity"": ""doctors"", ""contact:website"": ""https://www.studioolgasochirca.it/"", ""healthcare"": ""doctor"", ""healthcare:speciality"": ""gynaecology"", ""name"": ""Olga Sochirca"", ""opening_hours"": ""\""by appointment\""""}"
IT,Centro medico Sant'Agostino,angiology;gynaecology;surgery;dermatology;endocrinology;hepatology;gastroenterology;osteopathy;paediatrics;urology;infectious_diseases,clinic,clinic,"Piazza Sant'Agostino 18, Milano, 20123",,,https://www.santagostino.it/it/sedi/santagostino-18,Mo-Fr 08:00-20:30; Sa-Su off,45.4592355,9.170361,node,7253681954,https://www.openstreetmap.org/node/7253681954,Società e Salute S.p.A.,,node/7253681954,"{""addr:city"": ""Milano"", ""addr:housenumber"": ""18"", ""addr:postcode"": ""20123"", ""addr:street"": ""Piazza Sant'Agostino"", ""amenity"": ""clinic"", ""healthcare"": ""clinic"", ""healthcare:speciality"": ""angiology;gynaecology;surgery;dermatology;endocrinology;hepatology;gastroenterology;osteopathy;paediatrics;urology;infectious_diseases"", ""name"": ""Centro medico Sant'Agostino"", ""opening_hours"": ""Mo-Fr 08:00-20:30; Sa-Su off"", ""operator"": ""Società e Salute S.p.A."", ""operator:type"": ""private"", ""ref:vatin"": ""IT03740811207"", ""website"": ""https://www.santagostino.it/it/sedi/santagostino-18""}"
IT,IDR Imago - Istituto di Diagnostica Radiologica,diagnostic_radiology,clinic,,"Via Stiria 36, Udine, 33100",+39 0432 526209,,https://www.istitutoradiologia.it/,Mo-Fr 08:00-19:00; Sa 08:00-12:00,46.0392467,13.2456679,node,7261143603,https://www.openstreetmap.org/node/7261143603,,,node/7261143603,"{""addr:city"": ""Udine"", ""addr:housenumber"": ""36"", ""addr:postcode"": ""33100"", ""addr:street"": ""Via Stiria"", ""healthcare"": ""clinic"", ""healthcare:speciality"": ""diagnostic_radiology"", ""name"": ""IDR Imago - Istituto di Diagnostica Radiologica"", ""opening_hours"": ""Mo-Fr 08:00-19:00; Sa 08:00-12:00"", ""phone"": ""+39 0432 526209"", ""website"": ""https://www.istitutoradiologia.it/""}"
IT,Medical Group,radiology;dentist;multi_speciality;cardiology;general;gynaecology;dermatology;otolaryngology;physiotherapy;orthodontics,clinic,clinic,"Via dell'Industria 12, Venturina Terme, 57021",+39 0565 1975620,,https://www.medicalgroup-diagnostica.it/,Mo-Fr 09:00-19:00,43.0289258,10.6093894,node,7270872922,https://www.openstreetmap.org/node/7270872922,,,node/7270872922,"{""addr:city"": ""Venturina Terme"", ""addr:country"": ""IT"", ""addr:housenumber"": ""12"", ""addr:postcode"": ""57021"", ""addr:street"": ""Via dell'Industria"", ""amenity"": ""clinic"", ""healthcare"": ""clinic"", ""healthcare:speciality"": ""radiology;dentist;multi_speciality;cardiology;general;gynaecology;dermatology;otolaryngology;physiotherapy;orthodontics"", ""name"": ""Medical Group"", ""opening_hours"": ""Mo-Fr 09:00-19:00"", ""phone"": ""+39 0565 1975620"", ""website"": ""https://www.medicalgroup-diagnostica.it/"", ""wheelchair"": ""yes""}"
IT,Medical Resort,plastic_surgery;cardiology;gynaecology;gastroenterology;otolaryngology;neurology;orthopaedics;acupuncture;physiatry;osteopathy,clinic,,"Via Livio Colzani 137, Seregno, 20831",+390362245281,info@medical-resort.it,https://medical-resort.it/,Mo-Fr 08:30-20:30; Sa 09:00-13:00,45.6401341,9.1920583,node,7285973474,https://www.openstreetmap.org/node/7285973474,Lab.Fit Medical Wellness S.R.L.,,node/7285973474,"{""addr:city"": ""Seregno"", ""addr:housenumber"": ""137"", ""addr:postcode"": ""20831"", ""addr:street"": ""Via Livio Colzani"", ""email"": ""info@medical-resort.it"", ""fixme"": ""Posizione da precisare"", ""healthcare"": ""clinic"", ""healthcare:speciality"": ""plastic_surgery;cardiology;gynaecology;gastroenterology;otolaryngology;neurology;orthopaedics;acupuncture;physiatry;osteopathy"", ""name"": ""Medical Resort"", ""opening_hours"": ""Mo-Fr 08:30-20:30; Sa 09:00-13:00"", ""operator"": ""Lab.Fit Medical Wellness S.R.L."", ""phone"": ""+390362245281"", ""ref:vatin"": ""IT09770450964"", ""website"": ""https://medical-resort.it/""}"
IT,Centro Medico S.Ambrogio,,doctor,doctors,,,,,,45.0089406,8.9328555,node,7395930334,https://www.openstreetmap.org/node/7395930334,,,node/7395930334,"{""amenity"": ""doctors"", ""healthcare"": ""doctor"", ""name"": ""Centro Medico S.Ambrogio""}"
IT,Villa Maione,gynaecology,clinic,clinic,,+39 081 506 4056;+39 081 894 1104,villamajone@libero.it,,,40.9203912,14.1960032,node,7426739499,https://www.openstreetmap.org/node/7426739499,,,node/7426739499,"{""amenity"": ""clinic"", ""contact:housenumber"": ""59"", ""contact:street"": ""Via Enrico Fermi"", ""email"": ""villamajone@libero.it"", ""healthcare"": ""clinic"", ""healthcare:speciality"": ""gynaecology"", ""level"": ""0;1"", ""name"": ""Villa Maione"", ""phone"": ""+39 081 506 4056;+39 081 894 1104""}"
IT,Studio di consulenza psicologica Atlante,psychology,clinic,clinic,"Via Trento 91, Pescara, 65122",,,http://www.studioatlante.com/,,42.4710388,14.2087441,node,7467830943,https://www.openstreetmap.org/node/7467830943,,,node/7467830943,"{""addr:city"": ""Pescara"", ""addr:housenumber"": ""91"", ""addr:postcode"": ""65122"", ""addr:street"": ""Via Trento"", ""amenity"": ""clinic"", ""contact:mobile"": ""+39 349 526 3448"", ""facebook"": ""https://www.facebook.com/Studio-ATLANTE-127362703959000/"", ""healthcare"": ""clinic"", ""healthcare:speciality"": ""psychology"", ""name"": ""Studio di consulenza psicologica Atlante"", ""website"": ""http://www.studioatlante.com/""}"
IT,Centro Medico Sant'Ambrogio,clinic,doctor,doctors,"Via Alessandro Manzoni 16, Vignate, 20052",,,,,45.4959841,9.375111,node,7474568581,https://www.openstreetmap.org/node/7474568581,,,node/7474568581,"{""addr:city"": ""Vignate"", ""addr:housenumber"": ""16"", ""addr:postcode"": ""20052"", ""addr:street"": ""Via Alessandro Manzoni"", ""amenity"": ""doctors"", ""healthcare"": ""doctor"", ""healthcare:speciality"": ""clinic"", ""name"": ""Centro Medico Sant'Ambrogio""}"
IT,Centro Diagnostico Sabatino,cardiology;gynaecology;neurology;ophthalmology;orthopaedics;psychology;dermatology;urology;otolaryngology,clinic,clinic,"Via Romana 10, Anguillara Sabazia, 00061",+39069968758,info@cdsabatino.it,https://www.cdsabatino.it/,Mo-Fr 07:30-19:00; Sa 07:30-13:00; Su 08:00-12:00,42.0912123,12.2717519,node,7606030730,https://www.openstreetmap.org/node/7606030730,Centro Diagnostico Sabatino s.r.l.,,node/7606030730,"{""addr:city"": ""Anguillara Sabazia"", ""addr:housenumber"": ""10"", ""addr:postcode"": ""00061"", ""addr:street"": ""Via Romana"", ""amenity"": ""clinic"", ""email"": ""info@cdsabatino.it"", ""healthcare"": ""clinic"", ""healthcare:speciality"": ""cardiology;gynaecology;neurology;ophthalmology;orthopaedics;psychology;dermatology;urology;otolaryngology"", ""level"": ""0"", ""name"": ""Centro Diagnostico Sabatino"", ""opening_hours"": ""Mo-Fr 07:30-19:00; Sa 07:30-13:00; Su 08:00-12:00"", ""operator"": ""Centro Diagnostico Sabatino s.r.l."", ""operator:type"": ""private"", ""phone"": ""+39069968758"", ""website"": ""https://www.cdsabatino.it/"", ""wheelchair"": ""yes""}"
IT,Studio medico Panacea,acupuncture;cardiology;plastic_surgery;dermatology;diagnostic_radiology;physiotherapy;endocrinology;gastroenterology;gynaecology;neurology;dentist;oncology;orthopaedics;otolaryngology;pediatrics;psychology;urology,clinic,clinic,"Via Anguillarese 14, Anguillara Sabazia, 00061",+39069995955,,http://www.studiomedicopanacea.it/index.html,,42.0892955,12.2766005,node,7606094482,https://www.openstreetmap.org/node/7606094482,,,node/7606094482,"{""addr:city"": ""Anguillara Sabazia"", ""addr:housenumber"": ""14"", ""addr:postcode"": ""00061"", ""addr:street"": ""Via Anguillarese"", ""amenity"": ""clinic"", ""healthcare"": ""clinic"", ""healthcare:speciality"": ""acupuncture;cardiology;plastic_surgery;dermatology;diagnostic_radiology;physiotherapy;endocrinology;gastroenterology;gynaecology;neurology;dentist;oncology;orthopaedics;otolaryngology;pediatrics;psychology;urology"", ""name"": ""Studio medico Panacea"", ""phone"": ""+39069995955"", ""website"": ""http://www.studiomedicopanacea.it/index.html"", ""wheelchair"": ""yes""}"
IT,Radiologica Romana,allergology;cardiology;dermatology;endocrinology;gynaecology;neurology;urology;diagnostic_radiology,clinic,clinic,"Via Stazione della Storta 12, Roma, 00123",+390630890077,,https://www.radiologicaromana.it/,Mo-Sa 07:00-22:00; Su 08:00-12:30,42.0024808,12.3818544,node,7629765568,https://www.openstreetmap.org/node/7629765568,Radiologica Romana S.r.l.,,node/7629765568,"{""addr:city"": ""Roma"", ""addr:housenumber"": ""12"", ""addr:postcode"": ""00123"", ""addr:street"": ""Via Stazione della Storta"", ""amenity"": ""clinic"", ""healthcare"": ""clinic"", ""healthcare:speciality"": ""allergology;cardiology;dermatology;endocrinology;gynaecology;neurology;urology;diagnostic_radiology"", ""name"": ""Radiologica Romana"", ""opening_hours"": ""Mo-Sa 07:00-22:00; Su 08:00-12:30"", ""operator"": ""Radiologica Romana S.r.l."", ""operator:type"": ""private"", ""phone"": ""+390630890077"", ""website"": ""https://www.radiologicaromana.it/"", ""wheelchair"": ""yes""}"
IT,Studio Cardiologico Dr Carmelo Coppolino,cardiology,doctor,doctors,"Via del Mare 105, Barcellona Pozzo di Gotto, 98051",,,,,38.153421,15.2122378,node,7781793741,https://www.openstreetmap.org/node/7781793741,Carnelo Coppolino,,node/7781793741,"{""addr:city"": ""Barcellona Pozzo di Gotto"", ""addr:housenumber"": ""105"", ""addr:postcode"": ""98051"", ""addr:street"": ""Via del Mare"", ""amenity"": ""doctors"", ""healthcare"": ""doctor"", ""healthcare:speciality"": ""cardiology"", ""name"": ""Studio Cardiologico Dr Carmelo Coppolino"", ""operator"": ""Carnelo Coppolino""}"
IT,Pronto Soccorso Ginecologico,gynaecology,hospital,hospital,,,,,,44.8051976,10.3086357,node,7838235849,https://www.openstreetmap.org/node/7838235849,,,node/7838235849,"{""amenity"": ""hospital"", ""emergency"": ""yes"", ""healthcare"": ""hospital"", ""healthcare:speciality"": ""gynaecology"", ""name"": ""Pronto Soccorso Ginecologico""}"
IT,Dottor Paolo Garavoglia,cardiology,doctor,doctors,,,,,,45.5623329,8.0543242,node,7930495557,https://www.openstreetmap.org/node/7930495557,,,node/7930495557,"{""amenity"": ""doctors"", ""contact:city"": ""Biella"", ""contact:housenumber"": ""1"", ""contact:postcode"": ""13900"", ""contact:street"": ""Via Guglielmo Oberdan"", ""healthcare"": ""doctor"", ""healthcare:speciality"": ""cardiology"", ""name"": ""Dottor Paolo Garavoglia""}"
IT,Poliambulatorio Futura,orthopaedics;physiotherapy;gynaecology;ophthalmology;urology;neurology;cardiology;radiology,clinic,clinic,"Via Statale 26l, Scandiano, 42019",+39 0522 984880,,https://www.poliambulatoriofutura.it/,,44.5985538,10.6965576,node,8013576056,https://www.openstreetmap.org/node/8013576056,,,node/8013576056,"{""addr:city"": ""Scandiano"", ""addr:housenumber"": ""26l"", ""addr:postcode"": ""42019"", ""addr:street"": ""Via Statale"", ""amenity"": ""clinic"", ""healthcare"": ""clinic"", ""healthcare:speciality"": ""orthopaedics;physiotherapy;gynaecology;ophthalmology;urology;neurology;cardiology;radiology"", ""name"": ""Poliambulatorio Futura"", ""phone"": ""+39 0522 984880"", ""website"": ""https://www.poliambulatoriofutura.it/""}"
IT,Istituto clinico San Carlo,allergology;acupuncture;pain_therapy;cardiology;surgery;plastic_surgery;anaesthetics;cosmetic;vascular_surgery;orthopaedics;dermatology;echography;endocrinology;diabetology;physiatry;physiokinesitherapy;gynaecology;obstetrics;infectious_diseases;occupatio,centre,clinic,"Viale Castelfidardo 19, Busto Arsizio, 21052",+39 0331 685065,info@sancarloistitutoclinico.it,https://sancarloistitutoclinico.it/,,45.6208782,8.8507069,node,8024886395,https://www.openstreetmap.org/node/8024886395,,,node/8024886395,"{""addr:city"": ""Busto Arsizio"", ""addr:housenumber"": ""19"", ""addr:postcode"": ""21052"", ""addr:street"": ""Viale Castelfidardo"", ""amenity"": ""clinic"", ""contact:email"": ""info@sancarloistitutoclinico.it"", ""contact:facebook"": ""sancarlo.istitutoclinico"", ""contact:fax"": ""+39 0331 380731"", ""contact:instagram"": ""sancarloistituto"", ""contact:linkedin"": ""https://www.linkedin.com/company/san-carlo-istituto-clinico-srl"", ""contact:phone"": ""+39 0331 685065"", ""contact:twitter"": ""San_Carlo_ist"", ""contact:website"": ""https://sancarloistitutoclinico.it/"", ""contact:youtube"": ""https://www.youtube.com/channel/UCyri-BhXxMkN1AHZ-tQyBPw"", ""healthcare"": ""centre"", ""healthcare:speciality"": ""allergology;acupuncture;pain_therapy;cardiology;surgery;plastic_surgery;anaesthetics;cosmetic;vascular_surgery;orthopaedics;dermatology;echography;endocrinology;diabetology;physiatry;physiokinesitherapy;gynaecology;obstetrics;infectious_diseases;occupatio"", ""name"": ""Istituto clinico San Carlo"", ""ref:vatin"": ""IT03192740128"", ""wheelchair"": ""yes""}"
IT,Studio Podologico Catanzaro,,doctor,doctors,,,,,,37.0850154,15.2792821,node,8109816896,https://www.openstreetmap.org/node/8109816896,,,node/8109816896,"{""amenity"": ""doctors"", ""healthcare"": ""doctor"", ""name"": ""Studio Podologico Catanzaro""}"
IT,Studio Radiologico diagnostica per immagini,radiology,clinic,,,,,https://www.studioradiologico.com/,,45.8158467,8.8290065,node,8128301493,https://www.openstreetmap.org/node/8128301493,,,node/8128301493,"{""healthcare"": ""clinic"", ""healthcare:speciality"": ""radiology"", ""name"": ""Studio Radiologico diagnostica per immagini"", ""website"": ""https://www.studioradiologico.com/""}"
IT,Studio Podologico Urzì,,doctor,doctors,,,,,,37.5101971,15.0808599,node,8349857975,https://www.openstreetmap.org/node/8349857975,,,node/8349857975,"{""amenity"": ""doctors"", ""healthcare"": ""doctor"", ""name"": ""Studio Podologico Urzì""}"
IT,Studio medico Galileo,orthopaedics;blood_check;diagnostic_radiology;cardiology;dermatology;gastroenterology;gynaecology;neurology;physiatry;podiatry;urology;rheumatology;pulmonology;otolaryngology,centre,clinic,"Via dell'Edilizia 21, Follonica, 58022",+39 0566 45125,,http://www.studiomedicogalileo.com,,42.9365971,10.7902926,node,8464734879,https://www.openstreetmap.org/node/8464734879,,,node/8464734879,"{""addr:city"": ""Follonica"", ""addr:country"": ""IT"", ""addr:housenumber"": ""21"", ""addr:postcode"": ""58022"", ""addr:street"": ""Via dell'Edilizia"", ""amenity"": ""clinic"", ""contact:phone"": ""+39 0566 45125"", ""contact:website"": ""http://www.studiomedicogalileo.com"", ""entrance"": ""yes"", ""healthcare"": ""centre"", ""healthcare:speciality"": ""orthopaedics;blood_check;diagnostic_radiology;cardiology;dermatology;gastroenterology;gynaecology;neurology;physiatry;podiatry;urology;rheumatology;pulmonology;otolaryngology"", ""name"": ""Studio medico Galileo"", ""wheelchair"": ""yes""}"
IT,Ambulatorio Neurologico,neurology,clinic,clinic,,,,,,41.8874071,12.503269,node,8511688342,https://www.openstreetmap.org/node/8511688342,,,node/8511688342,"{""amenity"": ""clinic"", ""healthcare"": ""clinic"", ""healthcare:speciality"": ""neurology"", ""name"": ""Ambulatorio Neurologico""}"
IT,,gynaecology;otolaryngology,,doctors,,,,,,43.751536,12.9168645,node,8580595451,https://www.openstreetmap.org/node/8580595451,,,node/8580595451,"{""amenity"": ""doctors"", ""healthcare:speciality"": ""gynaecology;otolaryngology""}"
IT,Istituto Auxologico Italiano - Centro prelievi,,clinic,clinic,,,,,,45.5434705,9.1230337,node,8718754488,https://www.openstreetmap.org/node/8718754488,,,node/8718754488,"{""amenity"": ""clinic"", ""contact:city"": ""Bollate"", ""contact:housenumber"": ""3"", ""contact:street"": ""Largo Federico Fellini"", ""healthcare"": ""clinic"", ""level"": ""-1"", ""name"": ""Istituto Auxologico Italiano - Centro prelievi""}"
IT,Dott. Pasquale Grieco - Medico Chirurgo Odontoiatra Gnatologo,,doctor,doctors,,,,,,40.6750573,14.7703806,node,8797024470,https://www.openstreetmap.org/node/8797024470,,,node/8797024470,"{""amenity"": ""doctors"", ""healthcare"": ""doctor"", ""name"": ""Dott. Pasquale Grieco - Medico Chirurgo Odontoiatra Gnatologo""}"
IT,Eko radiologia,diagnostic_radiology,clinic,clinic,Via Grande 204,,,,,43.549667,10.3057091,node,8872907146,https://www.openstreetmap.org/node/8872907146,,,node/8872907146,"{""addr:housenumber"": ""204"", ""addr:street"": ""Via Grande"", ""amenity"": ""clinic"", ""healthcare"": ""clinic"", ""healthcare:speciality"": ""diagnostic_radiology"", ""name"": ""Eko radiologia""}"
IT,Auxologico Procaccini,,clinic,clinic,,,,https://www.auxologico.it/sedi/auxologico-procaccini,Mo-Fr 08:30-20:00; Sa 08:30-17:00,45.4837103,9.1767649,node,8888172757,https://www.openstreetmap.org/node/8888172757,Istituto Auxologico Italiano,,node/8888172757,"{""amenity"": ""clinic"", ""healthcare"": ""clinic"", ""name"": ""Auxologico Procaccini"", ""opening_hours"": ""Mo-Fr 08:30-20:00; Sa 08:30-17:00"", ""operator"": ""Istituto Auxologico Italiano"", ""operator:wikidata"": ""Q30281627"", ""website"": ""https://www.auxologico.it/sedi/auxologico-procaccini""}"
IT,Consultorio familiare - ASL Distretto sanitario 4,gynaecology;psychiatry,,doctors,"Via Dante Alighieri, Taranto, 74121",+39 099 778 6664,,https://www.sanita.puglia.it/ricerca_det/-/journal_content/56/36057/consultorio-familiare-taranto-solito-corvisea-trecarrare-battisti,,40.4631204,17.2640318,node,8907540730,https://www.openstreetmap.org/node/8907540730,Rita Liuzzi,,node/8907540730,"{""addr:city"": ""Taranto"", ""addr:postcode"": ""74121"", ""addr:street"": ""Via Dante Alighieri"", ""amenity"": ""doctors"", ""healthcare:speciality"": ""gynaecology;psychiatry"", ""name"": ""Consultorio familiare - ASL Distretto sanitario 4"", ""operator"": ""Rita Liuzzi"", ""operator:type"": ""public"", ""phone"": ""+39 099 778 6664"", ""website"": ""https://www.sanita.puglia.it/ricerca_det/-/journal_content/56/36057/consultorio-familiare-taranto-solito-corvisea-trecarrare-battisti""}"
IT,Dott. Oriani Daniela,gynaecology,doctor,doctors,,,,,"Mo,We 14:00-19:00;Tu,Th 09:00-11:00;Fr 14:00-18:00",45.5312602,9.1366489,node,8974632448,https://www.openstreetmap.org/node/8974632448,,,node/8974632448,"{""amenity"": ""doctors"", ""healthcare"": ""doctor"", ""healthcare:speciality"": ""gynaecology"", ""name"": ""Dott. Oriani Daniela"", ""opening_hours"": ""Mo,We 14:00-19:00;Tu,Th 09:00-11:00;Fr 14:00-18:00""}"
IT,Centro medico specialistico bolognese S.r.l,,hospital,hospital,"Via San Donato, Granarolo dell'Emilia, 40057",,,,,44.5495494,11.4466545,node,9034578922,https://www.openstreetmap.org/node/9034578922,,,node/9034578922,"{""addr:city"": ""Granarolo dell'Emilia"", ""addr:postcode"": ""40057"", ""addr:street"": ""Via San Donato"", ""amenity"": ""hospital"", ""healthcare"": ""hospital"", ""name"": ""Centro medico specialistico bolognese S.r.l""}"
IT,Dermatologo Dr. Annamaria Gubbini,dermatology,clinic,clinic,"Viale Alcide De Gasperi 75, Acqualagna, 61041",,,,,43.6236569,12.6763398,node,9043397423,https://www.openstreetmap.org/node/9043397423,,,node/9043397423,"{""addr:city"": ""Acqualagna"", ""addr:housenumber"": ""75"", ""addr:postcode"": ""61041"", ""addr:street"": ""Viale Alcide De Gasperi"", ""amenity"": ""clinic"", ""healthcare"": ""clinic"", ""healthcare:speciality"": ""dermatology"", ""name"": ""Dermatologo Dr. Annamaria Gubbini""}"
IT,Consultorio AIED,gynaecology,doctor,doctors,"Via Asiago 2, Ascoli Piceno, 63100",,,,,42.8581483,13.5781469,node,9091513568,https://www.openstreetmap.org/node/9091513568,,,node/9091513568,"{""addr:city"": ""Ascoli Piceno"", ""addr:housenumber"": ""2"", ""addr:postcode"": ""63100"", ""addr:street"": ""Via Asiago"", ""amenity"": ""doctors"", ""check_date"": ""2025-05-14"", ""healthcare"": ""doctor"", ""healthcare:speciality"": ""gynaecology"", ""name"": ""Consultorio AIED""}"
IT,Poliambulatorio Tempesta,biology;radiology;cardiology;gynaecology;dermatology;diabetology;orthopaedics;neurology;otolaryngology,clinic,clinic,"Via Antonio Tempesta 12, Roma, 00176",+39062751689,poliambulatoriotempesta@grupposanitel.com,https://www.grupposanitel.com/,"Mo-Fr 07:30-12:30, 15:30-19:00; Sa 07:30-12:00",41.8814042,12.5403314,node,9132644043,https://www.openstreetmap.org/node/9132644043,Ve.Di Radiologica S.r.l.,,node/9132644043,"{""addr:city"": ""Roma"", ""addr:housenumber"": ""12"", ""addr:postcode"": ""00176"", ""addr:street"": ""Via Antonio Tempesta"", ""amenity"": ""clinic"", ""check_date"": ""2025-08-20"", ""email"": ""poliambulatoriotempesta@grupposanitel.com"", ""healthcare"": ""clinic"", ""healthcare:speciality"": ""biology;radiology;cardiology;gynaecology;dermatology;diabetology;orthopaedics;neurology;otolaryngology"", ""name"": ""Poliambulatorio Tempesta"", ""opening_hours"": ""Mo-Fr 07:30-12:30, 15:30-19:00; Sa 07:30-12:00"", ""operator"": ""Ve.Di Radiologica S.r.l."", ""operator:type"": ""private"", ""payment:cash"": ""yes"", ""payment:credit_cards"": ""yes"", ""payment:debit_cards"": ""yes"", ""phone"": ""+39062751689"", ""website"": ""https://www.grupposanitel.com/""}"
IT,Dermatologo Dr. Di Silverio Adriano,dermatology;dermatovenereology,hospital,hospital,"Via Giacomo Franchi 15, Pavia, 27100",+39 335 7074458,,https://krophref.com/disilverio/paviaDermatologo,,45.1833612,9.1451826,node,9139528827,https://www.openstreetmap.org/node/9139528827,Di Silverio Adriano,,node/9139528827,"{""addr:city"": ""Pavia"", ""addr:housenumber"": ""15"", ""addr:postcode"": ""27100"", ""addr:street"": ""Via Giacomo Franchi"", ""amenity"": ""hospital"", ""description"": ""Studio Dermatologico di Dor. Di Silverio Adriano, è disponibile per la visita dermatologica professionale. Infatti il dermatologo assiste i pazienti da Pavia,  e Oltrepo Pavese come Voghera, Broni Stradella, Belgioioso, tutta la provincia Lodi e Milano."", ""emergency"": ""no"", ""healthcare"": ""hospital"", ""healthcare:speciality"": ""dermatology;dermatovenereology"", ""internet_access"": ""no"", ""name"": ""Dermatologo Dr. Di Silverio Adriano"", ""operator"": ""Di Silverio Adriano"", ""operator:type"": ""private"", ""phone"": ""+39 335 7074458"", ""website"": ""https://krophref.com/disilverio/paviaDermatologo"", ""wheelchair"": ""yes""}"
IT,Ispettorato Micologico,,doctor,doctors,,,,,,41.0722162,14.3411819,node,9216478545,https://www.openstreetmap.org/node/9216478545,ASL Caserta,,node/9216478545,"{""amenity"": ""doctors"", ""healthcare"": ""doctor"", ""name"": ""Ispettorato Micologico"", ""operator"": ""ASL Caserta""}"
IT,Silvana Baruzzi,gynaecology;geriatrics,doctor,doctors,Via Venti Settembre 19,,,,,44.2870984,11.8820939,node,9264541653,https://www.openstreetmap.org/node/9264541653,,,node/9264541653,"{""addr:housenumber"": ""19"", ""addr:street"": ""Via Venti Settembre"", ""amenity"": ""doctors"", ""healthcare"": ""doctor"", ""healthcare:speciality"": ""gynaecology;geriatrics"", ""name"": ""Silvana Baruzzi""}"
IT,Maria Teresa Pasculli,gynaecology,doctor,doctors,Via Antonio Laghi 60,,,,,44.2934683,11.8767835,node,9266018737,https://www.openstreetmap.org/node/9266018737,,,node/9266018737,"{""addr:housenumber"": ""60"", ""addr:street"": ""Via Antonio Laghi"", ""amenity"": ""doctors"", ""healthcare"": ""doctor"", ""healthcare:speciality"": ""gynaecology"", ""name"": ""Maria Teresa Pasculli""}"
IT,Centro Multispecialistico Etneo,general;gynaecology;ophthalmology;internal;orthopaedics;dermatology;otolaryngology;radiology;urology;physiotherapy;cardiology;neurology,doctor,doctors,,,,,,37.5203545,15.0895371,node,9294703789,https://www.openstreetmap.org/node/9294703789,,,node/9294703789,"{""amenity"": ""doctors"", ""healthcare"": ""doctor"", ""healthcare:speciality"": ""general;gynaecology;ophthalmology;internal;orthopaedics;dermatology;otolaryngology;radiology;urology;physiotherapy;cardiology;neurology"", ""name"": ""Centro Multispecialistico Etneo"", ""wheelchair"": ""yes""}"
IT,Centro famiglia Crescere Insieme Dueville,gynaecology;psicologia;psicoterapia;allattamento;yoga;massage_therapy;massaggio_infantile;cooperative_learning;pedagogia;learning_by_doing;psychology;psychotherapy;feeding_time;infant_massage;pedagogy,birthing_centre,,"Piazza Redentore 81, Dueville, 36031",+393428481606,centrofamiglia@comune.dueville.vi.it,https://www.facebook.com/centrofamigliadueville/,"Mo 10:00-12:00; Tu-We off; Th 10:00-12:00, 19:00-19:45; Fr-Su off",45.6256541,11.572333,node,9322268541,https://www.openstreetmap.org/node/9322268541,La Bussola - Cooperativa San Marco,,node/9322268541,"{""addr:city"": ""Dueville"", ""addr:housenumber"": ""81"", ""addr:postcode"": ""36031"", ""addr:street"": ""Piazza Redentore"", ""description"": ""Cos'è un Centro Famiglia? Un punto di riferimento, innanzitutto. Un luogo di crescita, di socialità, di relazioni positive . Un ritrovo aperto a tutti in cui poter avere informazioni, spunti educativi e di giochi, supporto."", ""email"": ""centrofamiglia@comune.dueville.vi.it"", ""healthcare"": ""birthing_centre"", ""healthcare:speciality"": ""gynaecology;psicologia;psicoterapia;allattamento;yoga;massage_therapy;massaggio_infantile;cooperative_learning;pedagogia;learning_by_doing;psychology;psychotherapy;feeding_time;infant_massage;pedagogy"", ""image"": ""https://gruppolabussola.files.wordpress.com/2016/12/copertina-fb-e1553872871793.jpg?w=600"", ""level"": ""0"", ""name"": ""Centro famiglia Crescere Insieme Dueville"", ""name:de"": ""Familienzentrum Zusammenwachsen Dueville"", ""name:it"": ""Centro famiglia Crescere Insieme Dueville"", ""opening_hours"": ""Mo 10:00-12:00; Tu-We off; Th 10:00-12:00, 19:00-19:45; Fr-Su off"", ""operator"": ""La Bussola - Cooperativa San Marco"", ""operator:type"": ""private"", ""phone"": ""+393428481606"", ""start_date"": ""2016-12-01"", ""website"": ""https://www.facebook.com/centrofamigliadueville/""}"
IT,"Centro Cardiologico ""Cardio 2""",cardiology,clinic,clinic,"Via Evangelista, Marcianise, 81020",,,,,41.029877,14.3148088,node,9358437223,https://www.openstreetmap.org/node/9358437223,,,node/9358437223,"{""addr:city"": ""Marcianise"", ""addr:postcode"": ""81020"", ""addr:street"": ""Via Evangelista"", ""amenity"": ""clinic"", ""healthcare"": ""clinic"", ""healthcare:speciality"": ""cardiology"", ""name"": ""Centro Cardiologico \""Cardio 2\""""}"
IT,FisioGiada,physiotherapy,doctor,doctors,"Viale dei Platani 80, Arese, 20044",,,,,45.5556376,9.0743114,node,9438162972,https://www.openstreetmap.org/node/9438162972,,,node/9438162972,"{""addr:city"": ""Arese"", ""addr:housenumber"": ""80"", ""addr:postcode"": ""20044"", ""addr:street"": ""Viale dei Platani"", ""amenity"": ""doctors"", ""description"": ""Poliambulatorio fisioterapico"", ""healthcare"": ""doctor"", ""healthcare:speciality"": ""physiotherapy"", ""name"": ""FisioGiada""}"
IT,Centro Radiologico Arese,radiology,doctor,doctors,,+390236429756,centroradiologicoarese@gmail.com,,,45.5556114,9.0742842,node,9438162987,https://www.openstreetmap.org/node/9438162987,,,node/9438162987,"{""amenity"": ""doctors"", ""email"": ""centroradiologicoarese@gmail.com"", ""fax"": ""+390289450618"", ""healthcare"": ""doctor"", ""healthcare:speciality"": ""radiology"", ""name"": ""Centro Radiologico Arese"", ""phone"": ""+390236429756""}"
IT,CRG - Centro Radiologico Garbagnate,radiology,doctor,doctors,,,,,,45.5753925,9.066025,node,9443499784,https://www.openstreetmap.org/node/9443499784,,,node/9443499784,"{""amenity"": ""doctors"", ""healthcare"": ""doctor"", ""healthcare:speciality"": ""radiology"", ""name"": ""CRG - Centro Radiologico Garbagnate""}"
IT,Ostia Radiologica Guidetti,radiology;urology;cardiology;dermatology;orthopaedics;otolaryngology;osteopathy,clinic,,"Corso Duca di Genova 26, Roma, 00121",+39 065672918,,https://ostiaradiologica.it/default.aspx,,41.7331734,12.2743169,node,9455704411,https://www.openstreetmap.org/node/9455704411,,Gruppo Guidetti,node/9455704411,"{""addr:city"": ""Roma"", ""addr:housenumber"": ""26"", ""addr:postcode"": ""00121"", ""addr:street"": ""Corso Duca di Genova"", ""brand"": ""Gruppo Guidetti"", ""fax"": ""+39 06 567 2905"", ""healthcare"": ""clinic"", ""healthcare:speciality"": ""radiology;urology;cardiology;dermatology;orthopaedics;otolaryngology;osteopathy"", ""level"": ""0,1"", ""name"": ""Ostia Radiologica Guidetti"", ""payment:cash"": ""yes"", ""payment:coins"": ""yes"", ""payment:contactless"": ""yes"", ""payment:credit_cards"": ""yes"", ""payment:mastercard"": ""yes"", ""payment:visa"": ""yes"", ""phone"": ""+39 065672918"", ""website"": ""https://ostiaradiologica.it/default.aspx""}"
IT,Studio Medico Polispecialistico ARPA,gynaecology;orthopaedics,clinic,clinic,,+39 346 3001311,,,,40.9035889,14.2136636,node,9469829858,https://www.openstreetmap.org/node/9469829858,,,node/9469829858,"{""amenity"": ""clinic"", ""healthcare"": ""clinic"", ""healthcare:speciality"": ""gynaecology;orthopaedics"", ""name"": ""Studio Medico Polispecialistico ARPA"", ""phone"": ""+39 346 3001311""}"
IT,Centro Traumatologico,,clinic,clinic,La Thuile,,,,,45.713568,6.9477987,node,9532495709,https://www.openstreetmap.org/node/9532495709,,,node/9532495709,"{""addr:city"": ""La Thuile"", ""amenity"": ""clinic"", ""healthcare"": ""clinic"", ""name"": ""Centro Traumatologico"", ""name:fr"": ""Centre de traumatologie"", ""source"": ""survey""}"
IT,Centro Traumatologico,,clinic,clinic,Courmayeur,,,,,45.7869438,6.970897,node,9532495710,https://www.openstreetmap.org/node/9532495710,,,node/9532495710,"{""addr:city"": ""Courmayeur"", ""amenity"": ""clinic"", ""healthcare"": ""clinic"", ""name"": ""Centro Traumatologico"", ""name:fr"": ""Centre de traumatologie"", ""source"": ""survey""}"
IT,Centro Traumatologico,,clinic,clinic,"Staffal, Gressoney-La-Trinité",,,,,45.8579018,7.8123679,node,9532518657,https://www.openstreetmap.org/node/9532518657,,,node/9532518657,"{""addr:city"": ""Gressoney-La-Trinité"", ""addr:street"": ""Staffal"", ""amenity"": ""clinic"", ""healthcare"": ""clinic"", ""name"": ""Centro Traumatologico"", ""source"": ""survey""}"
IT,Centro Traumatologico,,clinic,clinic,"Breuil Cervinia, Valtournenche",,,,,45.9359506,7.6289665,node,9532533625,https://www.openstreetmap.org/node/9532533625,,,node/9532533625,"{""addr:city"": ""Valtournenche"", ""addr:street"": ""Breuil Cervinia"", ""amenity"": ""clinic"", ""healthcare"": ""clinic"", ""name"": ""Centro Traumatologico"", ""source"": ""survey""}"
IT,Centro Traumatologico,,clinic,clinic,"Pila, Gressan",,,,,45.685622,7.3103729,node,9532539128,https://www.openstreetmap.org/node/9532539128,,,node/9532539128,"{""addr:city"": ""Gressan"", ""addr:street"": ""Pila"", ""amenity"": ""clinic"", ""healthcare"": ""clinic"", ""name"": ""Centro Traumatologico"", ""source"": ""survey""}"
IT,HumanRay - Centro Medico Diagnostico & Radiologia Odontoiatrica,radiology;gynaecology;psychiatry;dermatology;osteopathy,clinic,,"Via Quintino Sella 62 R, Firenze, 50136",+39 333 9767781,info@humanray.it,https://humanray.it,Mo-Fr 07:30-19:00; Sa 07:30-12:30; PH off,43.7669069,11.2805307,node,9553976466,https://www.openstreetmap.org/node/9553976466,,,node/9553976466,"{""addr:city"": ""Firenze"", ""addr:floor"": ""G"", ""addr:housenumber"": ""62 R"", ""addr:postcode"": ""50136"", ""addr:street"": ""Via Quintino Sella"", ""check_date"": ""2022-09-17"", ""contact:facebook"": ""https://www.facebook.com/HumanRayFirenze"", ""email"": ""info@humanray.it"", ""healthcare"": ""clinic"", ""healthcare:speciality"": ""radiology;gynaecology;psychiatry;dermatology;osteopathy"", ""internet_access"": ""no"", ""level"": ""0"", ""name"": ""HumanRay - Centro Medico Diagnostico & Radiologia Odontoiatrica"", ""opening_hours"": ""Mo-Fr 07:30-19:00; Sa 07:30-12:30; PH off"", ""opening_hours:url"": ""https://humanray.it/humanray/orario/"", ""payment:apple_pay"": ""yes"", ""payment:bancomat"": ""yes"", ""payment:cash"": ""yes"", ""payment:coins"": ""yes"", ""payment:contactless"": ""yes"", ""payment:credit_cards"": ""yes"", ""payment:google_pay"": ""yes"", ""payment:mastercard"": ""yes"", ""payment:visa"": ""yes"", ""phone"": ""+39 333 9767781"", ""start_date"": ""2022-02-01"", ""website"": ""https://humanray.it"", ""wheelchair"": ""yes""}"
IT,Centro Radiologico Arese - Bollate,radiology,doctor,doctors,,,centroradiologicoarese@gmail.com,,,45.5419003,9.1150131,node,9588577827,https://www.openstreetmap.org/node/9588577827,,,node/9588577827,"{""amenity"": ""doctors"", ""email"": ""centroradiologicoarese@gmail.com"", ""healthcare"": ""doctor"", ""healthcare:speciality"": ""radiology"", ""name"": ""Centro Radiologico Arese - Bollate""}"
IT,Policlinico Umberto I - Centro senologico integrato,oncology;diagnostic_radiology,clinic,,"Viale Regina Elena 287b, Roma, 00198",,,https://www.policlinicoumberto1.it/home-page/presidi-e-centri-di-eccellenza/breast-unit-centro-senologico-integrato/,,41.9073348,12.5144019,node,9866202362,https://www.openstreetmap.org/node/9866202362,Policlinico Umberto I,,node/9866202362,"{""addr:city"": ""Roma"", ""addr:housenumber"": ""287b"", ""addr:postcode"": ""00198"", ""addr:street"": ""Viale Regina Elena"", ""healthcare"": ""clinic"", ""healthcare:speciality"": ""oncology;diagnostic_radiology"", ""name"": ""Policlinico Umberto I - Centro senologico integrato"", ""operator"": ""Policlinico Umberto I"", ""website"": ""https://www.policlinicoumberto1.it/home-page/presidi-e-centri-di-eccellenza/breast-unit-centro-senologico-integrato/""}"
IT,Società Italiana di Andrologia,urology,clinic,clinic,"Via Cavour 42, Barletta, 76121",,,,,41.3193386,16.2851998,node,9883527394,https://www.openstreetmap.org/node/9883527394,,,node/9883527394,"{""addr:city"": ""Barletta"", ""addr:country"": ""IT"", ""addr:housenumber"": ""42"", ""addr:postcode"": ""76121"", ""addr:province"": ""Barletta-Andria-Trani"", ""addr:street"": ""Via Cavour"", ""amenity"": ""clinic"", ""check_date"": ""2022-07-12"", ""description"": ""Doctors Antonio Corvasce (Andrology and Urology) and Arianna Corvasce (general Surgery)"", ""healthcare"": ""clinic"", ""healthcare:speciality"": ""urology"", ""name"": ""Società Italiana di Andrologia""}"
IT,Centro Prevenzione Oncologica Angelo Girola,senologia;dermatology;pulmonology;gynaecology;pap-test;urology;otorhinolaryngology;dietitian;eco_collo-addome-linfonodi;eco_testicoli-transrettale;eco_transvaginale,clinic,clinic,"Via Mauro Venegoni 15, Busto Arsizio, 21052",+39 0331 639651,,https://www.lilt.it/dove/ambulatorio/13547,,45.6074396,8.8414181,node,9885606921,https://www.openstreetmap.org/node/9885606921,Lega Italiana per la Lotta conto i Tumori (LILT),,node/9885606921,"{""addr:city"": ""Busto Arsizio"", ""addr:housenumber"": ""15"", ""addr:postcode"": ""21052"", ""addr:street"": ""Via Mauro Venegoni"", ""amenity"": ""clinic"", ""healthcare"": ""clinic"", ""healthcare:speciality"": ""senologia;dermatology;pulmonology;gynaecology;pap-test;urology;otorhinolaryngology;dietitian;eco_collo-addome-linfonodi;eco_testicoli-transrettale;eco_transvaginale"", ""name"": ""Centro Prevenzione Oncologica Angelo Girola"", ""operator"": ""Lega Italiana per la Lotta conto i Tumori (LILT)"", ""operator:type"": ""association"", ""phone"": ""+39 0331 639651"", ""website"": ""https://www.lilt.it/dove/ambulatorio/13547""}"
IT,Antonio Cione,gynaecology,doctor,doctors,,+39 0827 35019,,,,40.8442694,15.3716339,node,9983457757,https://www.openstreetmap.org/node/9983457757,,,node/9983457757,"{""amenity"": ""doctors"", ""healthcare"": ""doctor"", ""healthcare:speciality"": ""gynaecology"", ""name"": ""Antonio Cione"", ""name:it"": ""Antonio Cione"", ""phone"": ""+39 0827 35019""}"
IT,Pronto Soccorso Ostetrico e Ginecologico Luigi Sacco,emergency;gynaecology,,,,,,,,45.5185528,9.1227836,node,10029331550,https://www.openstreetmap.org/node/10029331550,,,node/10029331550,"{""emergency"": ""emergency_ward_entrance"", ""emergency_ward_entrance"": ""all"", ""entrance"": ""yes"", ""healthcare:speciality"": ""emergency;gynaecology"", ""name"": ""Pronto Soccorso Ostetrico e Ginecologico Luigi Sacco""}"
IT,Turtulici Istituto Radiologico,,doctor,doctors,,,,,,44.4066438,8.9423158,node,10148967896,https://www.openstreetmap.org/node/10148967896,,,node/10148967896,"{""amenity"": ""doctors"", ""check_date"": ""2025-09-26"", ""healthcare"": ""doctor"", ""name"": ""Turtulici Istituto Radiologico""}"
IT,Studio Radiologico Casilino,,clinic,clinic,"Via dei Frassini 40/c, Roma, 00172",+39 06 2310825,,http://www.studioradiologicocasilino.it/,,41.8801817,12.5681836,node,10178518805,https://www.openstreetmap.org/node/10178518805,,,node/10178518805,"{""addr:city"": ""Roma"", ""addr:housenumber"": ""40/c"", ""addr:postcode"": ""00172"", ""addr:street"": ""Via dei Frassini"", ""amenity"": ""clinic"", ""healthcare"": ""clinic"", ""name"": ""Studio Radiologico Casilino"", ""phone"": ""+39 06 2310825"", ""ref:vatin"": ""IT01875781005"", ""website"": ""http://www.studioradiologicocasilino.it/""}"
IT,Centro Senologico,diagnostic_radiology,hospital,hospital,,,,,,44.8013364,10.3076993,node,10599295413,https://www.openstreetmap.org/node/10599295413,,,node/10599295413,"{""amenity"": ""hospital"", ""healthcare"": ""hospital"", ""healthcare:speciality"": ""diagnostic_radiology"", ""name"": ""Centro Senologico""}"
IT,Dott. Luigi Caputo,gynaecology,doctor,doctors,,,,,,45.5251328,9.3297875,node,10678600665,https://www.openstreetmap.org/node/10678600665,,,node/10678600665,"{""amenity"": ""doctors"", ""healthcare"": ""doctor"", ""healthcare:speciality"": ""gynaecology"", ""name"": ""Dott. Luigi Caputo""}"
IT,Milano Solari6,angiology;acupuncture;surgery;vascular_surgery;cardiology;dermatology;diabetology;gynaecology;neurology;neurosurgery;orthopaedics;osteopathy;podiatry;rheumatology;radiology;dental_oral_maxillo_facial_surgery;orthodontics;physiatry,clinic,clinic,"Via Andrea Solari 6, Milano, 20144",+39024812884,info@welfaremilano.it,https://group.welfareitalia.eu/content/milano-solari6,Mo-Fr 08:00-19:00,45.4563407,9.164916,node,10865689260,https://www.openstreetmap.org/node/10865689260,Welfare Italia,,node/10865689260,"{""addr:city"": ""Milano"", ""addr:housenumber"": ""6"", ""addr:postcode"": ""20144"", ""addr:street"": ""Via Andrea Solari"", ""amenity"": ""clinic"", ""email"": ""info@welfaremilano.it"", ""healthcare"": ""clinic"", ""healthcare:speciality"": ""angiology;acupuncture;surgery;vascular_surgery;cardiology;dermatology;diabetology;gynaecology;neurology;neurosurgery;orthopaedics;osteopathy;podiatry;rheumatology;radiology;dental_oral_maxillo_facial_surgery;orthodontics;physiatry"", ""name"": ""Milano Solari6"", ""opening_hours"": ""Mo-Fr 08:00-19:00"", ""operator"": ""Welfare Italia"", ""operator:type"": ""private"", ""phone"": ""+39024812884"", ""ref:vatin"": ""IT06520040962"", ""website"": ""https://group.welfareitalia.eu/content/milano-solari6""}"
IT,Dottore Luigi Di Meglio,gynaecology,doctor,doctors,,,,,"""su appuntamento""",45.3254877,8.4264415,node,10879205572,https://www.openstreetmap.org/node/10879205572,,,node/10879205572,"{""amenity"": ""doctors"", ""check_date"": ""2024-03-08"", ""contact:city"": ""Vercelli"", ""contact:housenumber"": ""3"", ""contact:postcode"": ""13100"", ""contact:street"": ""Via Antonio Borgogna"", ""description"": ""Medico chirurgo specialista ostetricia e ginecologia"", ""healthcare"": ""doctor"", ""healthcare:speciality"": ""gynaecology"", ""level"": ""0.5"", ""name"": ""Dottore Luigi Di Meglio"", ""opening_hours"": ""\""su appuntamento\""""}"
IT,Centro Radiologico Paternoster Tommaso,radiology,doctor,doctors,,,,,,41.0817494,16.790719,node,11001343018,https://www.openstreetmap.org/node/11001343018,,,node/11001343018,"{""amenity"": ""doctors"", ""healthcare"": ""doctor"", ""healthcare:speciality"": ""radiology"", ""name"": ""Centro Radiologico Paternoster Tommaso""}"
IT,Centro Medico Salus,cardiology;dermatology;haematology;angiology;physiotherapy;osteopathy;psychology;urology;psychiatry;orthopaedics;gynaecology;blood_check,clinic,clinic,"Viale Amerigo Vespucci 169, Pescara, 65126",+39 085 204 0789,info@centromedicosaluspescara.it,https://www.centromedicosaluspescara.it/,,42.4619555,14.2257143,node,11056544163,https://www.openstreetmap.org/node/11056544163,,,node/11056544163,"{""addr:city"": ""Pescara"", ""addr:housenumber"": ""169"", ""addr:postcode"": ""65126"", ""addr:street"": ""Viale Amerigo Vespucci"", ""amenity"": ""clinic"", ""contact:facebook"": ""centromedicosaluspescara"", ""contact:instagram"": ""centromedicosaluspescara"", ""email"": ""info@centromedicosaluspescara.it"", ""healthcare"": ""clinic"", ""healthcare:speciality"": ""cardiology;dermatology;haematology;angiology;physiotherapy;osteopathy;psychology;urology;psychiatry;orthopaedics;gynaecology;blood_check"", ""name"": ""Centro Medico Salus"", ""phone"": ""+39 085 204 0789"", ""ref:vatin"": ""IT02315180683"", ""website"": ""https://www.centromedicosaluspescara.it/""}"
IT,Azienda Sanitaria Locale - Dipendenze Patologiche,general,clinic,clinic,Via Santa Teresa 7,,,,"Mo-Tu,Fr 08:15-13:15; We 08:15-08:45,10:00-13:15; Th 15:15-17:15; Sa-Su off",40.6413342,17.9439483,node,11057115105,https://www.openstreetmap.org/node/11057115105,A.U.S.L. Brindisi,,node/11057115105,"{""addr:housenumber"": ""7"", ""addr:street"": ""Via Santa Teresa"", ""amenity"": ""clinic"", ""check_date"": ""2023-07-20"", ""healthcare"": ""clinic"", ""healthcare:speciality"": ""general"", ""level"": ""0"", ""name"": ""Azienda Sanitaria Locale - Dipendenze Patologiche"", ""opening_hours"": ""Mo-Tu,Fr 08:15-13:15; We 08:15-08:45,10:00-13:15; Th 15:15-17:15; Sa-Su off"", ""operator"": ""A.U.S.L. Brindisi"", ""operator:type"": ""public"", ""wheelchair"": ""yes""}"
IT,Dermatologica,dermatology,doctor,doctors,,,,,,45.4782492,9.1851588,node,11117119118,https://www.openstreetmap.org/node/11117119118,,,node/11117119118,"{""amenity"": ""doctors"", ""check_date"": ""2026-01-12"", ""healthcare"": ""doctor"", ""healthcare:speciality"": ""dermatology"", ""name"": ""Dermatologica""}"
